{"generatedAt":"2026-06-06T07:47:54.215Z","count":12198,"cities":[{"name":"Shanghai","region":"23","country":"CN","population":24874500,"lat":31.22222,"lng":121.45806},{"name":"Beijing","region":"22","country":"CN","population":18960744,"lat":39.9075,"lng":116.39723},{"name":"Shenzhen","region":"30","country":"CN","population":17494398,"lat":22.54554,"lng":114.0683},{"name":"Guangzhou","region":"30","country":"CN","population":16096724,"lat":23.11667,"lng":113.25},{"name":"Kinshasa","region":"06","country":"CD","population":16000000,"lat":-4.32758,"lng":15.31357},{"name":"Istanbul","region":"34","country":"TR","population":15701602,"lat":41.01384,"lng":28.94966},{"name":"Lagos","region":"05","country":"NG","population":15388000,"lat":6.45407,"lng":3.39467},{"name":"Ho Chi Minh City","region":"79","country":"VN","population":14002598,"lat":10.82302,"lng":106.62965},{"name":"Chengdu","region":"32","country":"CN","population":13568357,"lat":30.66667,"lng":104.06667},{"name":"Lahore","region":"04","country":"PK","population":13004135,"lat":31.558,"lng":74.35071},{"name":"Mumbai","region":"16","country":"IN","population":12691836,"lat":19.07283,"lng":72.88261},{"name":"São Paulo","region":"27","country":"BR","population":12400232,"lat":-23.5475,"lng":-46.63611},{"name":"Mexico City","region":"09","country":"MX","population":12294193,"lat":19.42847,"lng":-99.12766},{"name":"Karachi","region":"05","country":"PK","population":11624219,"lat":24.8608,"lng":67.0104},{"name":"Tianjin","region":"28","country":"CN","population":11090314,"lat":39.14222,"lng":117.17667},{"name":"Delhi","region":"07","country":"IN","population":11034555,"lat":28.65195,"lng":77.23149},{"name":"Wuhan","region":"12","country":"CN","population":10392693,"lat":30.58333,"lng":114.26667},{"name":"Moscow","region":"48","country":"RU","population":10381222,"lat":55.75204,"lng":37.61781},{"name":"Dhaka","region":"81","country":"BD","population":10356500,"lat":23.7104,"lng":90.40744},{"name":"Seoul","region":"11","country":"KR","population":10349312,"lat":37.566,"lng":126.9784},{"name":"Tokyo","region":"40","country":"JP","population":9733276,"lat":35.6895,"lng":139.69171},{"name":"Dongguan","region":"30","country":"CN","population":9644871,"lat":23.01797,"lng":113.74866},{"name":"Cairo","region":"11","country":"EG","population":9606916,"lat":30.06263,"lng":31.24967},{"name":"Xi’an","region":"26","country":"CN","population":9600000,"lat":34.25833,"lng":108.92861},{"name":"Johannesburg","region":"06","country":"ZA","population":9418183,"lat":-26.20227,"lng":28.04363},{"name":"Nanjing","region":"04","country":"CN","population":9314685,"lat":32.06167,"lng":118.77778},{"name":"Hangzhou","region":"02","country":"CN","population":9236032,"lat":30.29365,"lng":120.16142},{"name":"Foshan","region":"30","country":"CN","population":9042509,"lat":23.02677,"lng":113.13148},{"name":"London","region":"ENG","country":"GB","population":8961989,"lat":51.50853,"lng":-0.12574},{"name":"New York City","region":"NY","country":"US","population":8804190,"lat":40.71427,"lng":-74.00597},{"name":"Jakarta","region":"04","country":"ID","population":8540121,"lat":-6.21462,"lng":106.84513},{"name":"Bengaluru","region":"19","country":"IN","population":8495492,"lat":12.97194,"lng":77.59369},{"name":"Hanoi","region":"01","country":"VN","population":8053663,"lat":21.0245,"lng":105.84117},{"name":"Taipei","region":"04","country":"TW","population":7871900,"lat":25.05306,"lng":121.52639},{"name":"Lima","region":"LMA","country":"PE","population":7737002,"lat":-12.04318,"lng":-77.02824},{"name":"Bogotá","region":"34","country":"CO","population":7674366,"lat":4.60971,"lng":-74.08175},{"name":"Chongqing","region":"33","country":"CN","population":7457599,"lat":29.56026,"lng":106.55771},{"name":"Hong Kong","region":null,"country":"HK","population":7396076,"lat":22.27832,"lng":114.17469},{"name":"Baghdad","region":"07","country":"IQ","population":7216000,"lat":33.34058,"lng":44.40088},{"name":"Wuzhong","region":"21","country":"CN","population":7202654,"lat":37.9867,"lng":106.201},{"name":"Qingdao","region":"25","country":"CN","population":7172451,"lat":36.06488,"lng":120.38042},{"name":"Tehran","region":"26","country":"IR","population":7153309,"lat":35.69439,"lng":51.42151},{"name":"Shenyang","region":"19","country":"CN","population":7050000,"lat":41.79222,"lng":123.43278},{"name":"Hyderabad","region":"40","country":"IN","population":6993262,"lat":17.38405,"lng":78.45636},{"name":"Rio de Janeiro","region":"21","country":"BR","population":6747815,"lat":-22.90642,"lng":-43.18223},{"name":"Suzhou","region":"04","country":"CN","population":6715559,"lat":31.30408,"lng":120.59538},{"name":"Ahmedabad","region":"09","country":"IN","population":6357693,"lat":23.02579,"lng":72.58727},{"name":"Abidjan","region":"93","country":"CI","population":6321017,"lat":5.35444,"lng":-4.00167},{"name":"Pudong","region":"23","country":"CN","population":5681512,"lat":31.23995,"lng":121.50094},{"name":"Singapore","region":null,"country":"SG","population":5638700,"lat":1.28967,"lng":103.85007},{"name":"Sydney","region":"02","country":"AU","population":5557233,"lat":-33.86785,"lng":151.20732},{"name":"Dar es Salaam","region":"23","country":"TZ","population":5383728,"lat":-6.82349,"lng":39.26951},{"name":"Saint Petersburg","region":"66","country":"RU","population":5351935,"lat":59.93863,"lng":30.31413},{"name":"Melbourne","region":"07","country":"AU","population":5350705,"lat":-37.814,"lng":144.96332},{"name":"Alexandria","region":"06","country":"EG","population":5263542,"lat":31.20176,"lng":29.91582},{"name":"Harbin","region":"08","country":"CN","population":5242897,"lat":45.75,"lng":126.65},{"name":"Bangkok","region":"40","country":"TH","population":5104476,"lat":13.75398,"lng":100.50144},{"name":"Hefei","region":"01","country":"CN","population":5050000,"lat":31.86389,"lng":117.28083},{"name":"Dalian","region":"19","country":"CN","population":4913879,"lat":38.91222,"lng":121.60222},{"name":"Kano","region":"29","country":"NG","population":4910000,"lat":12.00012,"lng":8.51672},{"name":"Santiago","region":"12","country":"CL","population":4837295,"lat":-33.45694,"lng":-70.64827},{"name":"Cape Town","region":"11","country":"ZA","population":4772846,"lat":-33.92584,"lng":18.42322},{"name":"Peshawar","region":"03","country":"PK","population":4758762,"lat":34.008,"lng":71.57849},{"name":"Changchun","region":"05","country":"CN","population":4714996,"lat":43.88,"lng":125.32278},{"name":"Jeddah","region":"14","country":"SA","population":4697000,"lat":21.49012,"lng":39.18624},{"name":"Chennai","region":"25","country":"IN","population":4681087,"lat":13.08784,"lng":80.27847},{"name":"Kolkata","region":"28","country":"IN","population":4631392,"lat":22.56263,"lng":88.36304},{"name":"Xiamen","region":"07","country":"CN","population":4617251,"lat":24.47979,"lng":118.08187},{"name":"Surat","region":"09","country":"IN","population":4591246,"lat":21.19594,"lng":72.83023},{"name":"Yangon","region":"17","country":"MM","population":4477638,"lat":16.80528,"lng":96.15611},{"name":"Bao'an","region":"30","country":"CN","population":4476554,"lat":22.55213,"lng":113.88288},{"name":"Kabul","region":"13","country":"AF","population":4434550,"lat":34.52813,"lng":69.17233},{"name":"Nairobi","region":"05","country":"KE","population":4397073,"lat":-1.28333,"lng":36.81667},{"name":"Wuxi","region":"04","country":"CN","population":4396835,"lat":31.56887,"lng":120.28857},{"name":"Giza","region":"08","country":"EG","population":4367343,"lat":30.00944,"lng":31.20861},{"name":"Jinan","region":"25","country":"CN","population":4335989,"lat":36.66833,"lng":116.99722},{"name":"Taiyuan","region":"24","country":"CN","population":4303673,"lat":37.86944,"lng":112.56028},{"name":"Zhengzhou","region":"09","country":"CN","population":4253913,"lat":34.75778,"lng":113.64861},{"name":"Bamako","region":"01","country":"ML","population":4227569,"lat":12.60915,"lng":-7.97522},{"name":"Riyadh","region":"10","country":"SA","population":4205961,"lat":24.68773,"lng":46.72185},{"name":"New Taipei City","region":"03","country":"TW","population":4004367,"lat":25.06199,"lng":121.45703},{"name":"New Territories","region":"00","country":"HK","population":3984077,"lat":22.42441,"lng":114.11095},{"name":"Shijiazhuang","region":"10","country":"CN","population":3938513,"lat":38.04139,"lng":114.47861},{"name":"Chattogram","region":"84","country":"BD","population":3920222,"lat":22.3384,"lng":91.83168},{"name":"Addis Ababa","region":"44","country":"ET","population":3860000,"lat":9.02497,"lng":38.74689},{"name":"Kunming","region":"29","country":"CN","population":3855346,"lat":25.03889,"lng":102.71833},{"name":"Zhongshan","region":"30","country":"CN","population":3841873,"lat":22.52306,"lng":113.37912},{"name":"Nanning","region":"16","country":"CN","population":3839800,"lat":22.81667,"lng":108.31667},{"name":"Shantou","region":"30","country":"CN","population":3838900,"lat":23.35489,"lng":116.67876},{"name":"Los Angeles","region":"CA","country":"US","population":3820914,"lat":34.05223,"lng":-118.24368},{"name":"Faisalabad","region":"04","country":"PK","population":3800193,"lat":31.41554,"lng":73.08969},{"name":"Dubai","region":"03","country":"AE","population":3790000,"lat":25.07725,"lng":55.30927},{"name":"Yokohama","region":"19","country":"JP","population":3777491,"lat":35.43333,"lng":139.65},{"name":"Fuzhou","region":"07","country":"CN","population":3740000,"lat":26.06139,"lng":119.30611},{"name":"Ningbo","region":"02","country":"CN","population":3731203,"lat":29.87819,"lng":121.54945},{"name":"Casablanca","region":"06","country":"MA","population":3665954,"lat":33.58831,"lng":-7.61138},{"name":"Ibadan","region":"32","country":"NG","population":3649000,"lat":7.37756,"lng":3.90591},{"name":"Puyang","region":"02","country":"CN","population":3590000,"lat":29.45679,"lng":119.88872},{"name":"Ankara","region":"68","country":"TR","population":3517182,"lat":39.91987,"lng":32.85427},{"name":"Shiyan","region":"12","country":"CN","population":3460000,"lat":32.6475,"lng":110.77806},{"name":"Berlin","region":"16","country":"DE","population":3426354,"lat":52.52437,"lng":13.41053},{"name":"Tangshan","region":"10","country":"CN","population":3372102,"lat":39.64381,"lng":118.18319},{"name":"Rawalpindi","region":"04","country":"PK","population":3357612,"lat":33.59733,"lng":73.0479},{"name":"Lüliang","region":"24","country":"CN","population":3346500,"lat":37.5192,"lng":111.14436},{"name":"Durban","region":"02","country":"ZA","population":3338026,"lat":-29.8579,"lng":31.0292},{"name":"Changzhou","region":"04","country":"CN","population":3290918,"lat":31.77359,"lng":119.95401},{"name":"Busan","region":"10","country":"KR","population":3285147,"lat":35.10168,"lng":129.03004},{"name":"Madrid","region":"29","country":"ES","population":3255944,"lat":40.4165,"lng":-3.70256},{"name":"Pyongyang","region":"12","country":"KP","population":3222000,"lat":39.03385,"lng":125.75432},{"name":"Zibo","region":"25","country":"CN","population":3129228,"lat":36.79056,"lng":118.06333},{"name":"Pune","region":"16","country":"IN","population":3124458,"lat":18.51957,"lng":73.85535},{"name":"Bursa","region":"16","country":"TR","population":3101833,"lat":40.19559,"lng":29.06013},{"name":"Changsha","region":"11","country":"CN","population":3093980,"lat":28.19874,"lng":112.97087},{"name":"Quezon City","region":"NCR","country":"PH","population":3084270,"lat":14.6488,"lng":121.0509},{"name":"Jaipur","region":"24","country":"IN","population":3046163,"lat":26.91962,"lng":75.78781},{"name":"Guiyang","region":"18","country":"CN","population":3037159,"lat":26.58333,"lng":106.71667},{"name":"Ürümqi","region":"13","country":"CN","population":3029372,"lat":43.80096,"lng":87.60046},{"name":"Incheon","region":"12","country":"KR","population":3015482,"lat":37.45646,"lng":126.70515},{"name":"Lanzhou","region":"15","country":"CN","population":3000000,"lat":36.05701,"lng":103.83987},{"name":"Caracas","region":"25","country":"VE","population":3000000,"lat":10.48801,"lng":-66.87919},{"name":"Kyiv","region":"12","country":"UA","population":2952301,"lat":50.45466,"lng":30.5238},{"name":"İzmir","region":"35","country":"TR","population":2938292,"lat":38.41273,"lng":27.13838},{"name":"Huizhou","region":"30","country":"CN","population":2900113,"lat":23.11147,"lng":114.41523},{"name":"Buenos Aires","region":"07","country":"AR","population":2891082,"lat":-34.61315,"lng":-58.37723},{"name":"Surabaya","region":"08","country":"ID","population":2874314,"lat":-7.24917,"lng":112.75083},{"name":"Haikou","region":"31","country":"CN","population":2873358,"lat":20.03421,"lng":110.34651},{"name":"Taichung","region":"04","country":"TW","population":2850285,"lat":24.1469,"lng":120.6839},{"name":"Kanpur","region":"36","country":"IN","population":2823249,"lat":26.46523,"lng":80.34975},{"name":"Toronto","region":"08","country":"CA","population":2794356,"lat":43.70643,"lng":-79.39864},{"name":"Quito","region":"18","country":"EC","population":2781641,"lat":-0.22985,"lng":-78.52495},{"name":"Brisbane","region":"04","country":"AU","population":2780063,"lat":-27.46794,"lng":153.02809},{"name":"Luanda","region":"20","country":"AO","population":2776168,"lat":-8.83682,"lng":13.23432},{"name":"Osaka","region":"32","country":"JP","population":2753862,"lat":34.69379,"lng":135.50107},{"name":"Linyi","region":"25","country":"CN","population":2743843,"lat":35.06306,"lng":118.34278},{"name":"Baoding","region":"10","country":"CN","population":2739887,"lat":38.87288,"lng":115.46246},{"name":"Kaohsiung","region":"02","country":"TW","population":2737660,"lat":22.61626,"lng":120.31333},{"name":"Brooklyn","region":"NY","country":"US","population":2736074,"lat":40.6501,"lng":-73.94958},{"name":"Guayaquil","region":"10","country":"EC","population":2723665,"lat":-2.19616,"lng":-79.88621},{"name":"Belo Horizonte","region":"15","country":"BR","population":2721564,"lat":-19.92083,"lng":-43.93778},{"name":"Minhang","region":"23","country":"CN","population":2716600,"lat":31.10881,"lng":121.37471},{"name":"Bazhong","region":"32","country":"CN","population":2712894,"lat":31.8694,"lng":106.74432},{"name":"Salvador","region":"05","country":"BR","population":2711840,"lat":-12.97563,"lng":-38.49096},{"name":"Abuja","region":"11","country":"NG","population":2690000,"lat":9.05785,"lng":7.49508},{"name":"Gazipur","region":"81","country":"BD","population":2674697,"lat":23.99844,"lng":90.42234},{"name":"Chicago","region":"IL","country":"US","population":2664452,"lat":41.85003,"lng":-87.65005},{"name":"Wenzhou","region":"02","country":"CN","population":2650000,"lat":27.99942,"lng":120.66682},{"name":"Dakar","region":"01","country":"SN","population":2646503,"lat":14.6937,"lng":-17.44406},{"name":"Haiphong","region":"31","country":"VN","population":2625200,"lat":20.86481,"lng":106.68345},{"name":"Yunfu","region":"30","country":"CN","population":2612800,"lat":22.92787,"lng":112.03809},{"name":"Navi Mumbai","region":"16","country":"IN","population":2600000,"lat":19.03681,"lng":73.01582},{"name":"Mogadishu","region":"02","country":"SO","population":2587183,"lat":2.03711,"lng":45.34375},{"name":"Bekasi","region":"30","country":"ID","population":2564940,"lat":-6.2349,"lng":106.9896},{"name":"Kumasi","region":"02","country":"GH","population":2544530,"lat":6.68848,"lng":-1.62443},{"name":"Gujranwala","region":"04","country":"PK","population":2511118,"lat":32.15567,"lng":74.18705},{"name":"Huai'an","region":"04","country":"CN","population":2494013,"lat":33.58861,"lng":119.01917},{"name":"Lucknow","region":"36","country":"IN","population":2472011,"lat":26.83928,"lng":80.92313},{"name":"Bandung","region":"30","country":"ID","population":2444160,"lat":-6.92222,"lng":107.60694},{"name":"Medan","region":"26","country":"ID","population":2435252,"lat":3.58333,"lng":98.66667},{"name":"Ouagadougou","region":"03","country":"BF","population":2415266,"lat":12.36566,"lng":-1.53388},{"name":"Nagpur","region":"16","country":"IN","population":2405665,"lat":21.14631,"lng":79.08491},{"name":"Fortaleza","region":"06","country":"BR","population":2400000,"lat":-3.71722,"lng":-38.54306},{"name":"Cali","region":"29","country":"CO","population":2392877,"lat":3.43054,"lng":-76.5199},{"name":"Daegu","region":"15","country":"KR","population":2365523,"lat":35.87028,"lng":128.59111},{"name":"Algiers","region":"01","country":"DZ","population":2364230,"lat":36.73225,"lng":3.08746},{"name":"Nanchang","region":"03","country":"CN","population":2357839,"lat":28.68396,"lng":115.85306},{"name":"Baku","region":"09","country":"AZ","population":2351300,"lat":40.37767,"lng":49.89201},{"name":"Hohhot","region":"20","country":"CN","population":2350000,"lat":40.81056,"lng":111.65222},{"name":"Nagoya","region":"01","country":"JP","population":2332176,"lat":35.18147,"lng":136.90641},{"name":"Rome","region":"07","country":"IT","population":2318895,"lat":41.89193,"lng":12.51133},{"name":"Queens","region":"NY","country":"US","population":2316841,"lat":40.68149,"lng":-73.83652},{"name":"Houston","region":"TX","country":"US","population":2314157,"lat":29.76328,"lng":-95.36327},{"name":"Perth","region":"08","country":"AU","population":2309338,"lat":-31.95224,"lng":115.8614},{"name":"Mashhad","region":"42","country":"IR","population":2307177,"lat":36.29807,"lng":59.60567},{"name":"Shaoxing","region":"02","country":"CN","population":2300000,"lat":30.00237,"lng":120.57864},{"name":"Nantong","region":"04","country":"CN","population":2273326,"lat":32.03028,"lng":120.87472},{"name":"Baoshan","region":"23","country":"CN","population":2265900,"lat":31.40845,"lng":121.48956},{"name":"Kowloon","region":"00","country":"HK","population":2232339,"lat":22.31667,"lng":114.18333},{"name":"Yantai","region":"25","country":"CN","population":2227733,"lat":37.47649,"lng":121.44081},{"name":"Gaziantep","region":"83","country":"TR","population":2222415,"lat":37.05944,"lng":37.3825},{"name":"Lubumbashi","region":"14","country":"CD","population":2221925,"lat":-11.66089,"lng":27.47938},{"name":"Manaus","region":"04","country":"BR","population":2219580,"lat":-3.10194,"lng":-60.025},{"name":"Lusaka","region":"09","country":"ZM","population":2212301,"lat":-15.40669,"lng":28.28713},{"name":"Brasília","region":"07","country":"BR","population":2207718,"lat":-15.77972,"lng":-47.92972},{"name":"Zhuhai","region":"30","country":"CN","population":2207090,"lat":22.27694,"lng":113.56778},{"name":"Santo Domingo","region":"34","country":"DO","population":2201941,"lat":18.47186,"lng":-69.89232},{"name":"Lomé","region":"24","country":"TG","population":2188376,"lat":6.12874,"lng":1.22154},{"name":"Multan","region":"04","country":"PK","population":2169915,"lat":30.19679,"lng":71.47824},{"name":"Havana","region":"02","country":"CU","population":2163824,"lat":23.13302,"lng":-82.38304},{"name":"Baotou","region":"20","country":"CN","population":2150000,"lat":40.6516,"lng":109.84389},{"name":"Depok","region":"30","country":"ID","population":2145400,"lat":-6.4,"lng":106.81861},{"name":"Paris","region":"11","country":"FR","population":2138551,"lat":48.85341,"lng":2.3488},{"name":"Coimbatore","region":"25","country":"IN","population":2136916,"lat":11.00555,"lng":76.96612},{"name":"Qingyang","region":"15","country":"CN","population":2125400,"lat":35.70976,"lng":107.64455},{"name":"Port Harcourt","region":"50","country":"NG","population":2120000,"lat":4.77742,"lng":7.0134},{"name":"Pretoria","region":"06","country":"ZA","population":2112693,"lat":-25.74486,"lng":28.18783},{"name":"Córdoba","region":"05","country":"AR","population":2106734,"lat":-31.40648,"lng":-64.18853},{"name":"Mbuji-Mayi","region":"04","country":"CD","population":2101332,"lat":-6.13603,"lng":23.58979},{"name":"Aleppo","region":"09","country":"SY","population":2098210,"lat":36.20124,"lng":37.16117},{"name":"Kunshan","region":"04","country":"CN","population":2092496,"lat":31.37762,"lng":120.95431},{"name":"Al Mawşil al Jadīdah","region":"15","country":"IQ","population":2065597,"lat":36.33271,"lng":43.10555},{"name":"Weifang","region":"25","country":"CN","population":2044028,"lat":36.71,"lng":119.10194},{"name":"Zunyi","region":"18","country":"CN","population":2037775,"lat":27.68667,"lng":106.90722},{"name":"Al Başrah al Qadīmah","region":"02","country":"IQ","population":2015483,"lat":30.50316,"lng":47.81507},{"name":"La Paz","region":"04","country":"BO","population":2004652,"lat":-16.5,"lng":-68.15},{"name":"Lianyungang","region":"04","country":"CN","population":2001009,"lat":34.59845,"lng":119.21556},{"name":"Medellín","region":"02","country":"CO","population":1999979,"lat":6.245,"lng":-75.57151},{"name":"Indore","region":"35","country":"IN","population":1994397,"lat":22.71792,"lng":75.8333},{"name":"Brazzaville","region":"12","country":"CG","population":1982000,"lat":-4.26613,"lng":15.28318},{"name":"Tashkent","region":"13","country":"UZ","population":1978028,"lat":41.26465,"lng":69.21627},{"name":"Ganzhou","region":"03","country":"CN","population":1977253,"lat":25.84664,"lng":114.9326},{"name":"Almaty","region":"02","country":"KZ","population":1977011,"lat":43.25249,"lng":76.9115},{"name":"Khartoum","region":"29","country":"SD","population":1974647,"lat":15.55177,"lng":32.53241},{"name":"Hamburg","region":"04","country":"DE","population":1973896,"lat":53.55073,"lng":9.99302},{"name":"Sapporo","region":"12","country":"JP","population":1973832,"lat":43.06667,"lng":141.35},{"name":"Songjiang","region":"23","country":"CN","population":1973500,"lat":31.03443,"lng":121.22326},{"name":"Accra","region":"01","country":"GH","population":1963264,"lat":5.55602,"lng":-0.1969},{"name":"Curitiba","region":"18","country":"BR","population":1948626,"lat":-25.42778,"lng":-49.27306},{"name":"Ordos","region":"20","country":"CN","population":1940653,"lat":39.6086,"lng":109.78157},{"name":"Sanaa","region":"26","country":"YE","population":1937451,"lat":15.35452,"lng":44.20646},{"name":"Conakry","region":"04","country":"GN","population":1928389,"lat":9.53795,"lng":-13.67729},{"name":"Tijuana","region":"02","country":"MX","population":1922523,"lat":32.5027,"lng":-117.00371},{"name":"Hyderabad","region":"05","country":"PK","population":1921275,"lat":25.39689,"lng":68.37718},{"name":"Beirut","region":"04","country":"LB","population":1916100,"lat":33.89332,"lng":35.50157},{"name":"Tangerang","region":"33","country":"ID","population":1912679,"lat":-6.17806,"lng":106.63},{"name":"Jieyang","region":"30","country":"CN","population":1899394,"lat":23.5418,"lng":116.36581},{"name":"Jilin","region":"05","country":"CN","population":1895865,"lat":43.84652,"lng":126.5608},{"name":"Jiading","region":"23","country":"CN","population":1886100,"lat":31.38575,"lng":121.24465},{"name":"Bucharest","region":"10","country":"RO","population":1877155,"lat":44.43225,"lng":26.10626},{"name":"Camayenne","region":"04","country":"GN","population":1871242,"lat":9.535,"lng":-13.68778},{"name":"Kakamega","region":"20","country":"KE","population":1867579,"lat":0.28422,"lng":34.75229},{"name":"Shangqiu","region":"09","country":"CN","population":1859723,"lat":34.4143,"lng":115.65613},{"name":"Nanchong","region":"32","country":"CN","population":1858875,"lat":30.79508,"lng":106.08473},{"name":"Tainan","region":"04","country":"TW","population":1856642,"lat":22.99083,"lng":120.21333},{"name":"Datong","region":"24","country":"CN","population":1850000,"lat":40.09361,"lng":113.29139},{"name":"Kaduna","region":"23","country":"NG","population":1850000,"lat":10.52641,"lng":7.43879},{"name":"Omdurman","region":"29","country":"SD","population":1849659,"lat":15.64453,"lng":32.47773},{"name":"Davao","region":"11","country":"PH","population":1848947,"lat":7.07306,"lng":125.61278},{"name":"Thāne","region":"16","country":"IN","population":1841488,"lat":19.19704,"lng":72.96355},{"name":"Iztapalapa","region":"09","country":"MX","population":1835486,"lat":19.35529,"lng":-99.06224},{"name":"Diyarbakır","region":"21","country":"TR","population":1833684,"lat":37.91363,"lng":40.21721},{"name":"Santa Cruz de la Sierra","region":"08","country":"BO","population":1831434,"lat":-17.78629,"lng":-63.18117},{"name":"Vadodara","region":"09","country":"IN","population":1822221,"lat":22.29941,"lng":73.20812},{"name":"Adana","region":"81","country":"TR","population":1816750,"lat":36.98615,"lng":35.32531},{"name":"Nanyang","region":"09","country":"CN","population":1811812,"lat":33.00524,"lng":112.54659},{"name":"Abu Dhabi","region":"01","country":"AE","population":1807000,"lat":24.45118,"lng":54.39696},{"name":"Sharjah","region":"06","country":"AE","population":1800000,"lat":25.3342,"lng":55.41221},{"name":"Bhopal","region":"35","country":"IN","population":1798218,"lat":23.25469,"lng":77.40289},{"name":"Jiangmen","region":"30","country":"CN","population":1795459,"lat":22.58333,"lng":113.08333},{"name":"Benin City","region":"37","country":"NG","population":1782000,"lat":6.33815,"lng":5.62575},{"name":"Jiangyin","region":"04","country":"CN","population":1779515,"lat":31.91102,"lng":120.26302},{"name":"Fuyang","region":"01","country":"CN","population":1768947,"lat":32.9,"lng":115.81667},{"name":"Montréal","region":"10","country":"CA","population":1762949,"lat":45.50884,"lng":-73.58781},{"name":"Bayan Nur","region":"20","country":"CN","population":1760000,"lat":40.74143,"lng":107.38599},{"name":"Maracaibo","region":"23","country":"VE","population":1752602,"lat":10.64232,"lng":-71.61089},{"name":"Chaozhou","region":"30","country":"CN","population":1750945,"lat":23.65396,"lng":116.62262},{"name":"Minsk","region":"04","country":"BY","population":1742124,"lat":53.90019,"lng":27.56653},{"name":"Budapest","region":"05","country":"HU","population":1741041,"lat":47.49835,"lng":19.04045},{"name":"Qingyuan","region":"30","country":"CN","population":1738424,"lat":23.7,"lng":113.03333},{"name":"Tai’an","region":"25","country":"CN","population":1735425,"lat":36.18528,"lng":117.12},{"name":"Rasapūdipalem","region":"02","country":"IN","population":1728128,"lat":17.73308,"lng":83.31622},{"name":"Pimpri-Chinchwad","region":"16","country":"IN","population":1727692,"lat":18.61867,"lng":73.80375},{"name":"Caloocan","region":"NCR","country":"PH","population":1712945,"lat":14.64953,"lng":120.96788},{"name":"Warsaw","region":"78","country":"PL","population":1702139,"lat":52.22977,"lng":21.01178},{"name":"Soweto","region":"06","country":"ZA","population":1695047,"lat":-26.26781,"lng":27.85849},{"name":"Puebla","region":"21","country":"MX","population":1692181,"lat":19.04778,"lng":-98.20723},{"name":"Vienna","region":"09","country":"AT","population":1691468,"lat":48.20849,"lng":16.37208},{"name":"Barcelona","region":"56","country":"ES","population":1686208,"lat":41.38879,"lng":2.15899},{"name":"Patna","region":"34","country":"IN","population":1684297,"lat":25.59408,"lng":85.13563},{"name":"Mosul","region":"15","country":"IQ","population":1683000,"lat":36.335,"lng":43.11889},{"name":"Kallakurichi","region":"25","country":"IN","population":1682687,"lat":11.73379,"lng":78.95925},{"name":"Kampala","region":"C","country":"UG","population":1680600,"lat":0.31628,"lng":32.58219},{"name":"Xining","region":"06","country":"CN","population":1677177,"lat":36.62554,"lng":101.75739},{"name":"Changshu","region":"04","country":"CN","population":1677050,"lat":31.64615,"lng":120.74221},{"name":"Palembang","region":"32","country":"ID","population":1668848,"lat":-2.91673,"lng":104.7458},{"name":"Huainan","region":"01","country":"CN","population":1666826,"lat":32.62639,"lng":116.99694},{"name":"Rabat","region":"04","country":"MA","population":1655753,"lat":34.01325,"lng":-6.83255},{"name":"Semarang","region":"07","country":"ID","population":1653524,"lat":-6.99306,"lng":110.42083},{"name":"Recife","region":"30","country":"BR","population":1653461,"lat":-8.05389,"lng":-34.88111},{"name":"Phoenix","region":"AZ","country":"US","population":1650070,"lat":33.44838,"lng":-112.07404},{"name":"Suzhou","region":"01","country":"CN","population":1647642,"lat":33.63611,"lng":116.97889},{"name":"Ecatepec de Morelos","region":"15","country":"MX","population":1645352,"lat":19.60492,"lng":-99.06064},{"name":"Lu’an","region":"01","country":"CN","population":1644344,"lat":31.73561,"lng":116.51688},{"name":"Valencia","region":"07","country":"VE","population":1619470,"lat":10.16153,"lng":-68.00044},{"name":"Ludhiana","region":"23","country":"IN","population":1618879,"lat":30.91204,"lng":75.85379},{"name":"Yancheng","region":"04","country":"CN","population":1615717,"lat":33.3575,"lng":120.1573},{"name":"Novosibirsk","region":"53","country":"RU","population":1612833,"lat":55.02259,"lng":82.93175},{"name":"Erbil","region":"11","country":"IQ","population":1612700,"lat":36.19117,"lng":44.00943},{"name":"Fukuoka","region":"07","country":"JP","population":1612392,"lat":33.6,"lng":130.41667},{"name":"Taizhou","region":"04","country":"CN","population":1607108,"lat":32.49069,"lng":119.90812},{"name":"Daqing","region":"08","country":"CN","population":1604027,"lat":46.58333,"lng":125},{"name":"Manila","region":"NCR","country":"PH","population":1600000,"lat":14.6042,"lng":120.9822},{"name":"Wuhu","region":"01","country":"CN","population":1598165,"lat":31.35259,"lng":118.42947},{"name":"Santiago de Querétaro","region":"22","country":"MX","population":1594212,"lat":20.58806,"lng":-100.38806},{"name":"Dazhou","region":"32","country":"CN","population":1589435,"lat":31.2106,"lng":107.46308},{"name":"Yangzhou","region":"04","country":"CN","population":1584237,"lat":32.39722,"lng":119.43583},{"name":"León de los Aldama","region":"11","country":"MX","population":1579803,"lat":21.12183,"lng":-101.68253},{"name":"Makkah","region":"14","country":"SA","population":1578722,"lat":21.42664,"lng":39.82563},{"name":"Philadelphia","region":"PA","country":"US","population":1573916,"lat":39.95238,"lng":-75.16362},{"name":"Phnom Penh","region":"22","country":"KH","population":1573544,"lat":11.56245,"lng":104.91601},{"name":"Guilin","region":"16","country":"CN","population":1572300,"lat":25.28022,"lng":110.29639},{"name":"Damascus","region":"13","country":"SY","population":1569394,"lat":33.5102,"lng":36.29128},{"name":"Quetta","region":"02","country":"PK","population":1565546,"lat":30.18414,"lng":67.00141},{"name":"Zhaoqing","region":"30","country":"CN","population":1553109,"lat":23.04893,"lng":112.46091},{"name":"Onitsha","region":"25","country":"NG","population":1553000,"lat":6.14978,"lng":6.78569},{"name":"Mianyang","region":"32","country":"CN","population":1550000,"lat":31.46784,"lng":104.68168},{"name":"Auckland","region":"E7","country":"NZ","population":1547200,"lat":-36.84853,"lng":174.76349},{"name":"Isfahan","region":"28","country":"IR","population":1547164,"lat":32.65246,"lng":51.67462},{"name":"Wanzhou","region":"33","country":"CN","population":1545900,"lat":30.76451,"lng":108.39586},{"name":"Harare","region":"10","country":"ZW","population":1542813,"lat":-17.82772,"lng":31.05337},{"name":"Monrovia","region":"14","country":"LR","population":1542549,"lat":6.30054,"lng":-10.7969},{"name":"Putian","region":"07","country":"CN","population":1539389,"lat":25.43944,"lng":119.01028},{"name":"Kawasaki","region":"19","country":"JP","population":1538262,"lat":35.52056,"lng":139.71722},{"name":"Goiânia","region":"29","country":"BR","population":1536097,"lat":-16.67861,"lng":-49.25389},{"name":"San Antonio","region":"TX","country":"US","population":1526656,"lat":29.42412,"lng":-98.49363},{"name":"Kobe","region":"13","country":"JP","population":1525152,"lat":34.6913,"lng":135.183},{"name":"Stockholm","region":"26","country":"SE","population":1515017,"lat":59.32938,"lng":18.06871},{"name":"Ciudad Juárez","region":"06","country":"MX","population":1512450,"lat":31.72024,"lng":-106.46084},{"name":"Cần Thơ","region":"92","country":"VN","population":1507187,"lat":10.03711,"lng":105.78825},{"name":"Munich","region":"02","country":"DE","population":1505005,"lat":48.13743,"lng":11.57549},{"name":"Khulna","region":"82","country":"BD","population":1500689,"lat":22.80979,"lng":89.56439},{"name":"Belém","region":"16","country":"BR","population":1499641,"lat":-1.45583,"lng":-48.50444},{"name":"Yekaterinburg","region":"71","country":"RU","population":1495066,"lat":56.85733,"lng":60.61529},{"name":"Porto Alegre","region":"23","country":"BR","population":1488252,"lat":-30.03283,"lng":-51.23019},{"name":"Yinchuan","region":"21","country":"CN","population":1487579,"lat":38.46806,"lng":106.27306},{"name":"Manhattan","region":"NY","country":"US","population":1487536,"lat":40.78343,"lng":-73.96625},{"name":"Nashik","region":"16","country":"IN","population":1486053,"lat":19.99727,"lng":73.79096},{"name":"Taizhou","region":"02","country":"CN","population":1485502,"lat":28.66266,"lng":121.43312},{"name":"Asunción","region":"22","country":"PY","population":1482200,"lat":-25.28646,"lng":-57.647},{"name":"Yiwu","region":"02","country":"CN","population":1481384,"lat":29.31506,"lng":120.07676},{"name":"Zapopan","region":"14","country":"MX","population":1476491,"lat":20.72111,"lng":-103.38742},{"name":"Adelaide","region":"05","country":"AU","population":1469163,"lat":-34.92866,"lng":138.59863},{"name":"Quanzhou","region":"07","country":"CN","population":1469157,"lat":24.91389,"lng":118.58583},{"name":"Madurai","region":"25","country":"IN","population":1465625,"lat":9.919,"lng":78.11953},{"name":"Jinhua","region":"02","country":"CN","population":1463990,"lat":29.10678,"lng":119.64421},{"name":"Kyoto","region":"22","country":"JP","population":1463723,"lat":35.02107,"lng":135.75385},{"name":"Cixi","region":"02","country":"CN","population":1457510,"lat":30.1764,"lng":121.2457},{"name":"Changde","region":"11","country":"CN","population":1457419,"lat":29.03205,"lng":111.69844},{"name":"Kuala Lumpur","region":"14","country":"MY","population":1453975,"lat":3.1412,"lng":101.68653},{"name":"Kayseri","region":"38","country":"TR","population":1452458,"lat":38.73222,"lng":35.48528},{"name":"Kaifeng","region":"09","country":"CN","population":1451741,"lat":34.7986,"lng":114.30742},{"name":"Anshan","region":"19","country":"CN","population":1450000,"lat":41.12361,"lng":122.99},{"name":"Karaj","region":"44","country":"IR","population":1448075,"lat":35.83266,"lng":50.99155},{"name":"Kathmandu","region":"3","country":"NP","population":1442271,"lat":27.70169,"lng":85.3206},{"name":"Daejeon","region":"19","country":"KR","population":1441203,"lat":36.34913,"lng":127.38493},{"name":"Baoji","region":"26","country":"CN","population":1437802,"lat":34.36775,"lng":107.23705},{"name":"Suqian","region":"04","country":"CN","population":1437685,"lat":33.94917,"lng":118.29583},{"name":"Liuzhou","region":"16","country":"CN","population":1436599,"lat":24.32405,"lng":109.40698},{"name":"Tirunelveli","region":"25","country":"IN","population":1435844,"lat":8.72742,"lng":77.6838},{"name":"Konya","region":"71","country":"TR","population":1433861,"lat":37.87135,"lng":32.48464},{"name":"Zhangjiagang","region":"04","country":"CN","population":1432044,"lat":31.865,"lng":120.53889},{"name":"Agra","region":"36","country":"IN","population":1430055,"lat":27.18333,"lng":78.01667},{"name":"Tabriz","region":"33","country":"IR","population":1424641,"lat":38.08,"lng":46.2919},{"name":"Makassar","region":"38","country":"ID","population":1423877,"lat":-5.14861,"lng":119.43194},{"name":"Kharkiv","region":"07","country":"UA","population":1421125,"lat":49.98177,"lng":36.25475},{"name":"Jinjiang","region":"07","country":"CN","population":1416151,"lat":24.81978,"lng":118.57415},{"name":"Faridabad","region":"10","country":"IN","population":1414050,"lat":28.41124,"lng":77.31316},{"name":"Bozhou","region":"01","country":"CN","population":1409436,"lat":33.87722,"lng":115.77028},{"name":"Qujing","region":"29","country":"CN","population":1408500,"lat":25.48333,"lng":103.78333},{"name":"South Tangerang","region":"33","country":"ID","population":1404785,"lat":-6.28862,"lng":106.71789},{"name":"San Diego","region":"CA","country":"US","population":1404452,"lat":32.71571,"lng":-117.16472},{"name":"Gwangju","region":"18","country":"KR","population":1401235,"lat":35.15472,"lng":126.91556},{"name":"Zhanjiang","region":"30","country":"CN","population":1400709,"lat":21.23391,"lng":110.38749},{"name":"Fushun","region":"19","country":"CN","population":1400646,"lat":41.88669,"lng":123.94363},{"name":"Rājkot","region":"09","country":"IN","population":1390640,"lat":22.29161,"lng":70.79322},{"name":"Luoyang","region":"09","country":"CN","population":1390581,"lat":34.67345,"lng":112.43684},{"name":"Guadalajara","region":"14","country":"MX","population":1385629,"lat":20.67738,"lng":-103.34749},{"name":"The Bronx","region":"NY","country":"US","population":1385108,"lat":40.84985,"lng":-73.86641},{"name":"Guankou","region":"11","country":"CN","population":1380000,"lat":28.15861,"lng":113.62709},{"name":"Huế","region":"46","country":"VN","population":1380000,"lat":16.4619,"lng":107.59546},{"name":"Milan","region":"09","country":"IT","population":1371498,"lat":45.46427,"lng":9.18951},{"name":"Najafgarh","region":"07","country":"IN","population":1365000,"lat":28.60922,"lng":76.97982},{"name":"N'Djamena","region":"21","country":"TD","population":1359526,"lat":12.10672,"lng":15.0444},{"name":"Handan","region":"10","country":"CN","population":1358318,"lat":36.60999,"lng":114.48764},{"name":"Bannu","region":"03","country":"PK","population":1357890,"lat":32.98527,"lng":70.60403},{"name":"Yichang","region":"12","country":"CN","population":1350150,"lat":30.71444,"lng":111.28472},{"name":"Antananarivo","region":"11","country":"MG","population":1349501,"lat":-18.91368,"lng":47.53613},{"name":"Heze","region":"25","country":"CN","population":1346717,"lat":35.23929,"lng":115.47358},{"name":"Abobo","region":"93","country":"CI","population":1340083,"lat":5.41613,"lng":-4.0159},{"name":"Jamshedpur","region":"38","country":"IN","population":1339438,"lat":22.80278,"lng":86.18545},{"name":"Douala","region":"05","country":"CM","population":1338082,"lat":4.04827,"lng":9.70428},{"name":"Antalya","region":"07","country":"TR","population":1335002,"lat":36.90812,"lng":30.69556},{"name":"Basrah","region":"02","country":"IQ","population":1326564,"lat":30.50852,"lng":47.7804},{"name":"Dallas","region":"TX","country":"US","population":1326087,"lat":32.78306,"lng":-96.80667},{"name":"Saitama","region":"34","country":"JP","population":1324854,"lat":35.90807,"lng":139.65657},{"name":"Gorakhpur","region":"10","country":"IN","population":1324570,"lat":29.44768,"lng":75.67206},{"name":"Niamey","region":"08","country":"NE","population":1323691,"lat":13.51366,"lng":2.1098},{"name":"Liupanshui","region":"18","country":"CN","population":1320825,"lat":26.59444,"lng":104.83333},{"name":"Taguig","region":"NCR","country":"PH","population":1308085,"lat":14.5243,"lng":121.0792},{"name":"Maoming","region":"30","country":"CN","population":1307802,"lat":21.66625,"lng":110.91364},{"name":"Calgary","region":"01","country":"CA","population":1306784,"lat":51.05011,"lng":-114.08529},{"name":"Tripoli","region":"77","country":"LY","population":1302947,"lat":32.88743,"lng":13.18733},{"name":"Callao","region":"07","country":"PE","population":1300000,"lat":-12.05162,"lng":-77.13452},{"name":"Madinah","region":"05","country":"SA","population":1300000,"lat":24.46861,"lng":39.61417},{"name":"Yaoundé","region":"11","country":"CM","population":1299369,"lat":3.86667,"lng":11.51667},{"name":"Qinzhou","region":"16","country":"CN","population":1296300,"lat":21.98247,"lng":108.65061},{"name":"Luohe","region":"09","country":"CN","population":1294974,"lat":33.57424,"lng":114.03261},{"name":"Xiangyang","region":"12","country":"CN","population":1294733,"lat":32.0422,"lng":112.14479},{"name":"Yangjiang","region":"30","country":"CN","population":1292987,"lat":21.85563,"lng":111.96272},{"name":"Yixing","region":"04","country":"CN","population":1285785,"lat":31.36059,"lng":119.82016},{"name":"Pimpri","region":"16","country":"IN","population":1284606,"lat":18.62292,"lng":73.80696},{"name":"Da Nang","region":"48","country":"VN","population":1276000,"lat":16.06778,"lng":108.22083},{"name":"Amman","region":"16","country":"JO","population":1275857,"lat":31.95522,"lng":35.94503},{"name":"Budta","region":"14","country":"PH","population":1273715,"lat":7.20417,"lng":124.43972},{"name":"Belgrade","region":"SE","country":"RS","population":1273651,"lat":44.80401,"lng":20.46513},{"name":"Biên Hòa","region":"75","country":"VN","population":1272235,"lat":10.94469,"lng":106.82432},{"name":"Qingpu","region":"23","country":"CN","population":1271424,"lat":31.15394,"lng":121.11408},{"name":"Montevideo","region":"10","country":"UY","population":1270737,"lat":-34.90328,"lng":-56.18816},{"name":"Xuchang","region":"09","country":"CN","population":1265536,"lat":34.03189,"lng":113.86299},{"name":"Kalyān","region":"16","country":"IN","population":1262255,"lat":19.2437,"lng":73.13554},{"name":"Zigong","region":"32","country":"CN","population":1262064,"lat":29.34162,"lng":104.77689},{"name":"Nizhniy Novgorod","region":"51","country":"RU","population":1259013,"lat":56.32867,"lng":44.00205},{"name":"Jepara","region":"07","country":"ID","population":1257912,"lat":-6.5924,"lng":110.671},{"name":"Maputo","region":"11","country":"MZ","population":1254837,"lat":-25.96553,"lng":32.58322},{"name":"Xuzhou","region":"04","country":"CN","population":1253991,"lat":34.20442,"lng":117.28386},{"name":"Dammam","region":"06","country":"SA","population":1252523,"lat":26.43442,"lng":50.10326},{"name":"Ra’s Bayrūt","region":"04","country":"LB","population":1251739,"lat":33.9,"lng":35.48333},{"name":"Neijiang","region":"32","country":"CN","population":1251095,"lat":29.58354,"lng":105.06216},{"name":"Shiraz","region":"07","country":"IR","population":1249942,"lat":29.61031,"lng":52.53113},{"name":"Heshan","region":"11","country":"CN","population":1249807,"lat":28.56938,"lng":112.34733},{"name":"Dombivali","region":"16","country":"IN","population":1247327,"lat":19.21667,"lng":73.08333},{"name":"Kananga","region":"23","country":"CD","population":1247168,"lat":-5.89624,"lng":22.41659},{"name":"Kazan","region":"73","country":"RU","population":1243500,"lat":55.78874,"lng":49.12214},{"name":"Jining","region":"25","country":"CN","population":1241012,"lat":35.405,"lng":116.58139},{"name":"Barquisimeto","region":"13","country":"VE","population":1240714,"lat":10.0647,"lng":-69.35703},{"name":"Shubrā al Khaymah","region":"12","country":"EG","population":1240289,"lat":30.12511,"lng":31.25053},{"name":"Putuo","region":"23","country":"CN","population":1239100,"lat":31.251,"lng":121.3897},{"name":"Port-au-Prince","region":"11","country":"HT","population":1234742,"lat":18.54349,"lng":-72.33881},{"name":"Suwon","region":"13","country":"KR","population":1234582,"lat":37.29111,"lng":127.00889},{"name":"Xinyang","region":"09","country":"CN","population":1230042,"lat":32.12278,"lng":114.06556},{"name":"Liaocheng","region":"25","country":"CN","population":1229768,"lat":36.45064,"lng":116.00247},{"name":"Jinzhong","region":"24","country":"CN","population":1226617,"lat":37.68403,"lng":112.75471},{"name":"Meerut","region":"36","country":"IN","population":1223184,"lat":28.98002,"lng":77.70636},{"name":"Virār","region":"16","country":"IN","population":1222390,"lat":19.45591,"lng":72.81136},{"name":"Nowrangapur","region":"21","country":"IN","population":1220946,"lat":19.23114,"lng":82.54826},{"name":"Karbala","region":"12","country":"IQ","population":1218732,"lat":32.61603,"lng":44.02488},{"name":"Changzhi","region":"24","country":"CN","population":1214940,"lat":36.18389,"lng":113.10528},{"name":"Tianshui","region":"15","country":"CN","population":1212791,"lat":34.57952,"lng":105.74238},{"name":"Sadr City","region":"07","country":"IQ","population":1211849,"lat":33.3889,"lng":44.4583},{"name":"Yangpu","region":"23","country":"CN","population":1210800,"lat":31.26193,"lng":121.51904},{"name":"Mombasa","region":"37","country":"KE","population":1208333,"lat":-4.05466,"lng":39.66359},{"name":"Mandalay","region":"08","country":"MM","population":1208099,"lat":21.97473,"lng":96.08359},{"name":"Srinagar","region":"12","country":"IN","population":1206419,"lat":34.08565,"lng":74.80555},{"name":"Barranquilla","region":"04","country":"CO","population":1206319,"lat":10.96854,"lng":-74.78132},{"name":"Chelyabinsk","region":"13","country":"RU","population":1202371,"lat":55.1611,"lng":61.42877},{"name":"Mérida","region":"31","country":"MX","population":1201000,"lat":20.967,"lng":-89.62318},{"name":"Hiroshima","region":"11","country":"JP","population":1200754,"lat":34.4,"lng":132.45},{"name":"Santiago de los Caballeros","region":"25","country":"DO","population":1200000,"lat":19.45036,"lng":-70.69085},{"name":"Shymkent","region":"1537272","country":"KZ","population":1200000,"lat":42.30988,"lng":69.60042},{"name":"Weinan","region":"26","country":"CN","population":1199290,"lat":34.50355,"lng":109.50891},{"name":"Ghāziābād","region":"36","country":"IN","population":1199191,"lat":28.66535,"lng":77.43915},{"name":"Matola","region":"04","country":"MZ","population":1198988,"lat":-25.96222,"lng":32.45889},{"name":"Dhanbad","region":"38","country":"IN","population":1196214,"lat":23.79759,"lng":86.42992},{"name":"Hong Kong Island","region":"00","country":"HK","population":1195529,"lat":22.26302,"lng":114.18419},{"name":"Fes","region":"03","country":"MA","population":1191905,"lat":34.03313,"lng":-5.00028},{"name":"Gustavo Adolfo Madero","region":"09","country":"MX","population":1185772,"lat":19.49392,"lng":-99.11075},{"name":"Nouakchott","region":null,"country":"MR","population":1184530,"lat":18.08581,"lng":-15.9785},{"name":"Kisangani","region":"30","country":"CD","population":1181788,"lat":0.51528,"lng":25.19099},{"name":"Jiaxing","region":"02","country":"CN","population":1180000,"lat":30.7522,"lng":120.75},{"name":"Aurangabad","region":"16","country":"IN","population":1175116,"lat":19.87757,"lng":75.34226},{"name":"Zhongwei","region":"21","country":"CN","population":1174600,"lat":37.51129,"lng":105.19067},{"name":"Omsk","region":"54","country":"RU","population":1172070,"lat":54.99244,"lng":73.36859},{"name":"Guarulhos","region":"27","country":"BR","population":1169577,"lat":-23.46278,"lng":-46.53333},{"name":"Panjin","region":"19","country":"CN","population":1166481,"lat":41.121,"lng":122.0739},{"name":"Bandar Lampung","region":"15","country":"ID","population":1166066,"lat":-5.42917,"lng":105.26111},{"name":"Prague","region":"52","country":"CZ","population":1165581,"lat":50.08804,"lng":14.42076},{"name":"Varanasi","region":"36","country":"IN","population":1164404,"lat":25.31668,"lng":83.01041},{"name":"Batam","region":"37","country":"ID","population":1164352,"lat":1.14937,"lng":104.02491},{"name":"Jiujiang","region":"03","country":"CN","population":1164268,"lat":29.70475,"lng":116.00206},{"name":"Samara","region":"65","country":"RU","population":1163399,"lat":53.20767,"lng":50.13553},{"name":"Aba","region":"45","country":"NG","population":1160000,"lat":5.10658,"lng":7.36667},{"name":"Amritsar","region":"23","country":"IN","population":1159227,"lat":31.62234,"lng":74.87534},{"name":"Birmingham","region":"ENG","country":"GB","population":1157603,"lat":52.48142,"lng":-1.89983},{"name":"Copenhagen","region":"17","country":"DK","population":1153615,"lat":55.67594,"lng":12.56553},{"name":"Sofia","region":"42","country":"BG","population":1152556,"lat":42.69751,"lng":23.32415},{"name":"Anyang","region":"09","country":"CN","population":1146839,"lat":36.096,"lng":114.38278},{"name":"Yerevan","region":"11","country":"AM","population":1144700,"lat":40.17765,"lng":44.5126},{"name":"Luohu District","region":"30","country":"CN","population":1143801,"lat":22.54721,"lng":114.13149},{"name":"Vijayawada","region":"02","country":"IN","population":1143232,"lat":16.50745,"lng":80.6466},{"name":"Fengxiang","region":"23","country":"CN","population":1140872,"lat":30.85841,"lng":121.46779},{"name":"Bijie","region":"18","country":"CN","population":1137383,"lat":27.30193,"lng":105.28627},{"name":"Monterrey","region":"19","country":"MX","population":1135512,"lat":25.68435,"lng":-100.31721},{"name":"Kigali","region":"12","country":"RW","population":1132686,"lat":-1.94995,"lng":30.05885},{"name":"Rostov-on-Don","region":"61","country":"RU","population":1130305,"lat":47.21997,"lng":39.70769},{"name":"Zhuzhou","region":"11","country":"CN","population":1129687,"lat":27.83333,"lng":113.15},{"name":"Bogor","region":"30","country":"ID","population":1127408,"lat":-6.59444,"lng":106.78917},{"name":"Malingao","region":"12","country":"PH","population":1121974,"lat":7.16083,"lng":124.475},{"name":"Touba","region":"03","country":"SN","population":1120824,"lat":14.86229,"lng":-15.87532},{"name":"Ufa","region":"08","country":"RU","population":1120547,"lat":54.74306,"lng":55.96779},{"name":"Ranchi","region":"38","country":"IN","population":1120374,"lat":23.34316,"lng":85.3094},{"name":"Shangrao","region":"03","country":"CN","population":1116486,"lat":28.45179,"lng":117.94287},{"name":"Lilongwe","region":"C","country":"MW","population":1115815,"lat":-13.96692,"lng":33.78725},{"name":"Huaibei","region":"01","country":"CN","population":1113321,"lat":33.97444,"lng":116.79167},{"name":"Maiduguri","region":"27","country":"NG","population":1110000,"lat":11.84692,"lng":13.15712},{"name":"Xuhui","region":"23","country":"CN","population":1109800,"lat":31.19594,"lng":121.44709},{"name":"Meishan","region":"32","country":"CN","population":1107742,"lat":30.04392,"lng":103.83696},{"name":"Mwanza","region":"12","country":"TZ","population":1104521,"lat":-2.51667,"lng":32.9},{"name":"Ulsan","region":"21","country":"KR","population":1098421,"lat":35.53722,"lng":129.31667},{"name":"Sendai","region":"24","country":"JP","population":1096704,"lat":38.26667,"lng":140.86667},{"name":"Krasnoyarsk","region":"91","country":"RU","population":1090811,"lat":56.03742,"lng":92.93136},{"name":"Fuzhou","region":"03","country":"CN","population":1089888,"lat":27.95999,"lng":116.33333},{"name":"Guigang","region":"16","country":"CN","population":1086327,"lat":23.11603,"lng":109.59472},{"name":"Pekanbaru","region":"37","country":"ID","population":1085000,"lat":0.51667,"lng":101.44167},{"name":"Oslo","region":"12","country":"NO","population":1082575,"lat":59.91273,"lng":10.74609},{"name":"Jabalpur","region":"35","country":"IN","population":1081677,"lat":23.16697,"lng":79.95006},{"name":"Ilorin","region":"30","country":"NG","population":1080000,"lat":8.49664,"lng":4.54214},{"name":"Aden","region":"02","country":"YE","population":1079670,"lat":12.77957,"lng":45.03852},{"name":"Ciudad Nezahualcoyotl","region":"15","country":"MX","population":1077208,"lat":19.40061,"lng":-99.01483},{"name":"Hengyang","region":"11","country":"CN","population":1075516,"lat":26.88946,"lng":112.61888},{"name":"Prayagraj","region":"36","country":"IN","population":1073438,"lat":25.44478,"lng":81.84322},{"name":"Visakhapatnam","region":"02","country":"IN","population":1063178,"lat":17.68009,"lng":83.20161},{"name":"Goyang-si","region":"13","country":"KR","population":1061752,"lat":37.65639,"lng":126.835},{"name":"Yulin","region":"16","country":"CN","population":1056743,"lat":22.6305,"lng":110.14686},{"name":"Jodhpur","region":"24","country":"IN","population":1056191,"lat":26.26841,"lng":73.00594},{"name":"Gwalior","region":"35","country":"IN","population":1054420,"lat":26.22983,"lng":78.17337},{"name":"Jingzhou","region":"12","country":"CN","population":1052282,"lat":30.35028,"lng":112.19028},{"name":"Gqeberha","region":"05","country":"ZA","population":1050078,"lat":-33.96109,"lng":25.61494},{"name":"Tbilisi","region":"51","country":"GE","population":1049498,"lat":41.69143,"lng":44.83412},{"name":"Voronezh","region":"86","country":"RU","population":1047549,"lat":51.66833,"lng":39.19204},{"name":"Xinxiang","region":"09","country":"CN","population":1047088,"lat":35.19033,"lng":113.80151},{"name":"Yichun","region":"03","country":"CN","population":1045952,"lat":27.83333,"lng":114.4},{"name":"Sokoto","region":"51","country":"NG","population":1040000,"lat":13.06269,"lng":5.24322},{"name":"Jos","region":"49","country":"NG","population":1040000,"lat":9.92849,"lng":8.89212},{"name":"Tangier","region":"01","country":"MA","population":1035141,"lat":35.76727,"lng":-5.79975},{"name":"Teni","region":"25","country":"IN","population":1034724,"lat":10.01115,"lng":77.47772},{"name":"Xianyang","region":"26","country":"CN","population":1034081,"lat":34.33778,"lng":108.70261},{"name":"Mexicali","region":"02","country":"MX","population":1032686,"lat":32.62781,"lng":-115.45446},{"name":"Pointe-Noire","region":"15","country":"CG","population":1032000,"lat":-4.77609,"lng":11.86352},{"name":"Maceió","region":"02","country":"BR","population":1031597,"lat":-9.66583,"lng":-35.73528},{"name":"Campinas","region":"27","country":"BR","population":1031554,"lat":-22.90556,"lng":-47.06083},{"name":"Sanya","region":"31","country":"CN","population":1031396,"lat":18.25435,"lng":109.50947},{"name":"Rangpur","region":"87","country":"BD","population":1031388,"lat":25.74664,"lng":89.25166},{"name":"Kirkuk","region":"13","country":"IQ","population":1031000,"lat":35.46806,"lng":44.39222},{"name":"Ashgabat","region":"S","country":"TM","population":1030063,"lat":37.95,"lng":58.38333},{"name":"Comilla","region":"84","country":"BD","population":1030000,"lat":23.46186,"lng":91.18503},{"name":"Shaoguan","region":"30","country":"CN","population":1028460,"lat":24.8,"lng":113.58333},{"name":"Howrah","region":"28","country":"IN","population":1027672,"lat":22.57688,"lng":88.31857},{"name":"Raipur","region":"37","country":"IN","population":1027264,"lat":21.23333,"lng":81.63333},{"name":"Changwon","region":"20","country":"KR","population":1025702,"lat":35.22806,"lng":128.68111},{"name":"Longyan","region":"07","country":"CN","population":1025087,"lat":25.07485,"lng":117.01775},{"name":"Köln","region":"07","country":"DE","population":1024621,"lat":50.93333,"lng":6.95},{"name":"Dublin","region":"L","country":"IE","population":1024027,"lat":53.33306,"lng":-6.24889},{"name":"Tiruchirappalli","region":"25","country":"IN","population":1022518,"lat":10.8155,"lng":78.69651},{"name":"Yongzhou","region":"11","country":"CN","population":1020715,"lat":26.42389,"lng":111.61306},{"name":"Brussels","region":"BRU","country":"BE","population":1019022,"lat":50.85045,"lng":4.34878},{"name":"Zamboanga","region":"09","country":"PH","population":1018849,"lat":6.91028,"lng":122.07389},{"name":"Ottawa","region":"08","country":"CA","population":1017449,"lat":45.41117,"lng":-75.69812},{"name":"Huzhou","region":"02","country":"CN","population":1015937,"lat":30.8703,"lng":120.0933},{"name":"Volgograd","region":"84","country":"RU","population":1013533,"lat":48.71378,"lng":44.4976},{"name":"Khartoum North","region":"29","country":"SD","population":1012211,"lat":15.64925,"lng":32.53458},{"name":"Edmonton","region":"01","country":"CA","population":1010899,"lat":53.55014,"lng":-113.46871},{"name":"Odesa","region":"17","country":"UA","population":1010537,"lat":46.48572,"lng":30.74383},{"name":"Wuwei","region":"15","country":"CN","population":1010295,"lat":37.92672,"lng":102.63202},{"name":"Jacksonville","region":"FL","country":"US","population":1009833,"lat":30.33218,"lng":-81.65565},{"name":"Arequipa","region":"04","country":"PE","population":1008290,"lat":-16.39899,"lng":-71.53747},{"name":"Fort Worth","region":"TX","country":"US","population":1008106,"lat":32.72541,"lng":-97.32085},{"name":"Hanzhong","region":"26","country":"CN","population":1006557,"lat":33.07507,"lng":107.02214},{"name":"Hezhou","region":"16","country":"CN","population":1005490,"lat":24.40357,"lng":111.56675},{"name":"Pest","region":"05","country":"HU","population":1001748,"lat":47.5,"lng":19.08333},{"name":"Kota","region":"24","country":"IN","population":1001694,"lat":25.18254,"lng":75.83907},{"name":"Zhu Cheng City","region":"25","country":"CN","population":1000000,"lat":35.99502,"lng":119.40259},{"name":"Shivaji Nagar","region":"16","country":"IN","population":1000000,"lat":18.53017,"lng":73.85263},{"name":"Dongying","region":"25","country":"CN","population":998968,"lat":37.46271,"lng":118.49165},{"name":"Luzhou","region":"32","country":"CN","population":998900,"lat":28.8903,"lng":105.42575},{"name":"San Jose","region":"CA","country":"US","population":997368,"lat":37.33939,"lng":-121.89496},{"name":"Sholapur","region":"16","country":"IN","population":997281,"lat":17.67152,"lng":75.91044},{"name":"Marrakesh","region":"07","country":"MA","population":995871,"lat":31.63416,"lng":-7.99994},{"name":"Guatemala City","region":"07","country":"GT","population":994938,"lat":14.64072,"lng":-90.51327},{"name":"Meizhou","region":"30","country":"CN","population":992351,"lat":24.28859,"lng":116.11768},{"name":"Yueyang","region":"11","country":"CN","population":991465,"lat":29.37455,"lng":113.09481},{"name":"Laiwu","region":"25","country":"CN","population":989535,"lat":36.19278,"lng":117.65694},{"name":"Benxi","region":"19","country":"CN","population":987717,"lat":41.28861,"lng":123.765},{"name":"Perm","region":"90","country":"RU","population":982419,"lat":58.01046,"lng":56.25017},{"name":"Zaria","region":"23","country":"NG","population":980000,"lat":11.11128,"lng":7.7227},{"name":"Kennedy","region":"34","country":"CO","population":979914,"lat":4.6165,"lng":-74.14597},{"name":"Chiba","region":"04","country":"JP","population":979768,"lat":35.6,"lng":140.11667},{"name":"Pingdingshan","region":"09","country":"CN","population":979130,"lat":33.73091,"lng":113.31554},{"name":"Ciudad Guayana","region":"06","country":"VE","population":978202,"lat":8.35122,"lng":-62.64102},{"name":"Sargodha","region":"04","country":"PK","population":975886,"lat":32.08586,"lng":72.67418},{"name":"Austin","region":"TX","country":"US","population":974447,"lat":30.26715,"lng":-97.74306},{"name":"Managua","region":"10","country":"NI","population":973087,"lat":12.13282,"lng":-86.2504},{"name":"Bengbu","region":"01","country":"CN","population":972784,"lat":32.94083,"lng":117.36083},{"name":"Salé","region":"04","country":"MA","population":972299,"lat":34.0531,"lng":-6.79846},{"name":"Jerusalem","region":"06","country":"IL","population":971800,"lat":31.76904,"lng":35.21633},{"name":"Chandigarh","region":"05","country":"IN","population":970602,"lat":30.73629,"lng":76.7884},{"name":"Dnipro","region":"04","country":"UA","population":968502,"lat":48.46664,"lng":35.04066},{"name":"Cebu City","region":"07","country":"PH","population":965332,"lat":10.31672,"lng":123.89071},{"name":"Sanhe","region":"10","country":"CN","population":965075,"lat":39.98049,"lng":117.06887},{"name":"Tiruppur","region":"25","country":"IN","population":963173,"lat":11.11541,"lng":77.35456},{"name":"Guwahati","region":"03","country":"IN","population":962334,"lat":26.1844,"lng":91.7458},{"name":"Xiangtan","region":"11","country":"CN","population":959303,"lat":27.85,"lng":112.9},{"name":"Linfen","region":"24","country":"CN","population":959198,"lat":36.08889,"lng":111.51889},{"name":"Victoria","region":"HCW","country":"HK","population":956800,"lat":22.2875,"lng":114.14417},{"name":"Zhenjiang","region":"04","country":"CN","population":950516,"lat":32.21086,"lng":119.45508},{"name":"Enugu","region":"47","country":"NG","population":950000,"lat":6.44132,"lng":7.49883},{"name":"Rosario","region":"21","country":"AR","population":948312,"lat":-32.94682,"lng":-60.63932},{"name":"Sulţānah","region":"05","country":"SA","population":946697,"lat":24.49258,"lng":39.58572},{"name":"Huludao","region":"19","country":"CN","population":944495,"lat":40.75243,"lng":120.83552},{"name":"Hubballi","region":"19","country":"IN","population":943788,"lat":15.34776,"lng":75.13378},{"name":"Kitakyushu","region":"07","country":"JP","population":940978,"lat":33.85181,"lng":130.85034},{"name":"Taiz","region":"25","country":"YE","population":940600,"lat":13.57952,"lng":44.02091},{"name":"Setagaya","region":"40","country":"JP","population":940071,"lat":35.64188,"lng":139.64715},{"name":"Kingston","region":"17","country":"JM","population":937700,"lat":17.99702,"lng":-76.79358},{"name":"Jing’an","region":"23","country":"CN","population":936500,"lat":31.22,"lng":121.41583},{"name":"Baoshan","region":"29","country":"CN","population":935618,"lat":25.11626,"lng":99.16366},{"name":"Rui’an","region":"02","country":"CN","population":927383,"lat":27.77605,"lng":120.65859},{"name":"Chihuahua","region":"06","country":"MX","population":925762,"lat":28.63528,"lng":-106.08889},{"name":"Nay Pyi Taw","region":"18","country":"MM","population":925000,"lat":19.745,"lng":96.12972},{"name":"Eskişehir","region":"26","country":"TR","population":921630,"lat":39.77667,"lng":30.52056},{"name":"Mysuru","region":"19","country":"IN","population":920550,"lat":12.29791,"lng":76.63925},{"name":"Trujillo","region":"13","country":"PE","population":919899,"lat":-8.11599,"lng":-79.02998},{"name":"Salem","region":"25","country":"IN","population":917414,"lat":11.65376,"lng":78.15538},{"name":"São Luís","region":"13","country":"BR","population":917237,"lat":-2.52972,"lng":-44.30278},{"name":"Seongnam-si","region":"13","country":"KR","population":914832,"lat":37.43861,"lng":127.13778},{"name":"Cartagena","region":"35","country":"CO","population":914552,"lat":10.39817,"lng":-75.49328},{"name":"Antipolo","region":"40","country":"PH","population":913712,"lat":14.62578,"lng":121.12251},{"name":"Columbus","region":"OH","country":"US","population":913175,"lat":39.96118,"lng":-82.99879},{"name":"Sialkot","region":"04","country":"PK","population":911817,"lat":32.49268,"lng":74.53134},{"name":"Charlotte","region":"NC","country":"US","population":911311,"lat":35.22709,"lng":-80.84313},{"name":"Laibin","region":"16","country":"CN","population":910282,"lat":23.74743,"lng":109.22222},{"name":"Warri","region":"36","country":"NG","population":910000,"lat":5.51737,"lng":5.75006},{"name":"Naples","region":"04","country":"IT","population":909048,"lat":40.85216,"lng":14.26811},{"name":"Padang","region":"24","country":"ID","population":909040,"lat":-0.94924,"lng":100.35427},{"name":"Xiaogan","region":"12","country":"CN","population":908266,"lat":30.92689,"lng":113.92221},{"name":"Campo Grande","region":"11","country":"BR","population":906092,"lat":-20.44278,"lng":-54.64639},{"name":"Ziyang","region":"32","country":"CN","population":905729,"lat":30.12108,"lng":104.64811},{"name":"Bobo-Dioulasso","region":"09","country":"BF","population":904920,"lat":11.18064,"lng":-4.29489},{"name":"Bahawalpur","region":"04","country":"PK","population":903795,"lat":29.39779,"lng":71.6752},{"name":"Quzhou","region":"02","country":"CN","population":902767,"lat":28.95944,"lng":118.86861},{"name":"Blantyre","region":"S","country":"MW","population":902588,"lat":-15.78499,"lng":35.00854},{"name":"Donetsk","region":"05","country":"UA","population":901645,"lat":48.023,"lng":37.80224},{"name":"Abū Ghurayb","region":"07","country":"IQ","population":900000,"lat":33.30563,"lng":44.18477},{"name":"Qom","region":"39","country":"IR","population":900000,"lat":34.6401,"lng":50.8764},{"name":"Bishkek","region":"01","country":"KG","population":900000,"lat":42.87,"lng":74.59},{"name":"Zaozhuang","region":"25","country":"CN","population":899753,"lat":34.86472,"lng":117.55417},{"name":"Krasnodar","region":"38","country":"RU","population":899541,"lat":45.04534,"lng":38.98178},{"name":"Natal","region":"22","country":"BR","population":896708,"lat":-5.795,"lng":-35.20944},{"name":"Pingxiang","region":"03","country":"CN","population":893550,"lat":27.61672,"lng":113.85353},{"name":"Cancún","region":"23","country":"MX","population":888797,"lat":21.17429,"lng":-86.84656},{"name":"Indianapolis","region":"IN","country":"US","population":887642,"lat":39.76838,"lng":-86.15804},{"name":"Gurugram","region":"10","country":"IN","population":886519,"lat":28.4601,"lng":77.02635},{"name":"Bhubaneswar","region":"21","country":"IN","population":885363,"lat":20.27241,"lng":85.83385},{"name":"Zhoushan","region":"02","country":"CN","population":882932,"lat":29.98869,"lng":122.20488},{"name":"Qiqihar","region":"08","country":"CN","population":882364,"lat":47.33922,"lng":123.96154},{"name":"Mulenvos","region":"20","country":"AO","population":882014,"lat":-8.86695,"lng":13.3344},{"name":"Sulaymaniyah","region":"05","country":"IQ","population":878146,"lat":35.56496,"lng":45.4329},{"name":"Marseille","region":"93","country":"FR","population":877215,"lat":43.29695,"lng":5.38107},{"name":"Puning","region":"30","country":"CN","population":874954,"lat":23.31072,"lng":116.16869},{"name":"Pikine","region":"01","country":"SN","population":874062,"lat":14.76457,"lng":-17.39071},{"name":"Bhiwandi","region":"16","country":"IN","population":874032,"lat":19.30023,"lng":73.05881},{"name":"Soshanguve","region":"06","country":"ZA","population":872309,"lat":-25.47288,"lng":28.09919},{"name":"Teresina","region":"20","country":"BR","population":871126,"lat":-5.08917,"lng":-42.80194},{"name":"Ankang","region":"26","country":"CN","population":870126,"lat":32.68,"lng":109.01722},{"name":"Jalandhar","region":"23","country":"IN","population":868929,"lat":31.32556,"lng":75.57917},{"name":"Rotterdam","region":"11","country":"NL","population":868135,"lat":51.9225,"lng":4.47917},{"name":"Langfang","region":"10","country":"CN","population":868066,"lat":39.52079,"lng":116.71471},{"name":"Viana","region":"20","country":"AO","population":865863,"lat":-8.90553,"lng":13.37499},{"name":"Jiaozuo","region":"09","country":"CN","population":865413,"lat":35.23925,"lng":113.23914},{"name":"Rohini","region":"07","country":"IN","population":860000,"lat":28.74322,"lng":77.06778},{"name":"Wanxian","region":"33","country":"CN","population":859662,"lat":30.81601,"lng":108.37407},{"name":"Guang’an","region":"32","country":"CN","population":858159,"lat":30.47413,"lng":106.63696},{"name":"Johor Bahru","region":"01","country":"MY","population":858118,"lat":1.4655,"lng":103.7578},{"name":"Pasig City","region":"NCR","country":"PH","population":853050,"lat":14.58691,"lng":121.0614},{"name":"Cheongju-si","region":"05","country":"KR","population":852147,"lat":36.63722,"lng":127.48972},{"name":"Kanayannur","region":"13","country":"IN","population":851406,"lat":9.96667,"lng":76.26667},{"name":"Tegucigalpa","region":"08","country":"HN","population":850848,"lat":14.0818,"lng":-87.20681},{"name":"Bucheon-si","region":"13","country":"KR","population":850731,"lat":37.49889,"lng":126.78306},{"name":"Thanh Hóa","region":"38","country":"VN","population":850000,"lat":19.8,"lng":105.76667},{"name":"Turin","region":"12","country":"IT","population":847287,"lat":45.07049,"lng":7.68682},{"name":"Malang","region":"08","country":"ID","population":847182,"lat":-7.9797,"lng":112.6304},{"name":"Al Ain City","region":"01","country":"AE","population":846747,"lat":24.19167,"lng":55.76056},{"name":"Libreville","region":"01","country":"GA","population":846090,"lat":0.39241,"lng":9.45356},{"name":"Saratov","region":"67","country":"RU","population":844858,"lat":51.54048,"lng":45.9901},{"name":"Ulan Bator","region":"20","country":"MN","population":844818,"lat":47.90771,"lng":106.88324},{"name":"Weihai","region":"25","country":"CN","population":844310,"lat":37.50914,"lng":122.11356},{"name":"Takeo","region":"19","country":"KH","population":843931,"lat":10.99081,"lng":104.78498},{"name":"Cochabamba","region":"02","country":"BO","population":841276,"lat":-17.38195,"lng":-66.15995},{"name":"Ahvaz","region":"15","country":"IR","population":841145,"lat":31.31901,"lng":48.6842},{"name":"Vientiane","region":"24","country":"LA","population":840940,"lat":17.96667,"lng":102.6},{"name":"Zhabei","region":"23","country":"CN","population":840000,"lat":31.25861,"lng":121.45972},{"name":"Xinyu","region":"03","country":"CN","population":839488,"lat":27.80429,"lng":114.93335},{"name":"Pietermaritzburg","region":"02","country":"ZA","population":839327,"lat":-29.61679,"lng":30.39278},{"name":"Yibin","region":"32","country":"CN","population":836340,"lat":28.7593,"lng":104.63994},{"name":"Naucalpan de Juárez","region":"15","country":"MX","population":834434,"lat":19.47851,"lng":-99.23963},{"name":"Kampung Baru Subang","region":"12","country":"MY","population":833571,"lat":3.15,"lng":101.53333},{"name":"Bouaké","region":"90","country":"CI","population":832371,"lat":7.69385,"lng":-5.03031},{"name":"Samarinda","region":"14","country":"ID","population":831460,"lat":-0.49167,"lng":117.14583},{"name":"Taicang","region":"04","country":"CN","population":831113,"lat":31.44778,"lng":121.09389},{"name":"San Francisco","region":"CA","country":"US","population":827526,"lat":37.77493,"lng":-122.41942},{"name":"Sakai","region":"32","country":"JP","population":826161,"lat":34.58216,"lng":135.46653},{"name":"Valencia","region":"60","country":"ES","population":824340,"lat":39.47391,"lng":-0.37966},{"name":"Nova Iguaçu","region":"21","country":"BR","population":823302,"lat":-22.75917,"lng":-43.45111},{"name":"Jinshan","region":"23","country":"CN","population":822776,"lat":30.83556,"lng":121.29373},{"name":"Chenzhou","region":"11","country":"CN","population":822534,"lat":25.8,"lng":113.03333},{"name":"Duque de Caxias","region":"21","country":"BR","population":818329,"lat":-22.78556,"lng":-43.31167},{"name":"João Pessoa","region":"17","country":"BR","population":817511,"lat":-7.115,"lng":-34.86306},{"name":"Bukavu","region":"12","country":"CD","population":816811,"lat":-2.49077,"lng":28.84281},{"name":"Barcelona","region":"02","country":"VE","population":815141,"lat":10.1384,"lng":-64.68769},{"name":"Bangui","region":"18","country":"CF","population":812407,"lat":4.36122,"lng":18.55496},{"name":"Hermosillo","region":"26","country":"MX","population":812229,"lat":29.08874,"lng":-110.96677},{"name":"Bhayandar","region":"16","country":"IN","population":809378,"lat":19.30157,"lng":72.85107},{"name":"Culiacán","region":"25","country":"MX","population":808416,"lat":24.80209,"lng":-107.39421},{"name":"Petaling Jaya","region":"12","country":"MY","population":807879,"lat":3.10726,"lng":101.60671},{"name":"Anqing","region":"01","country":"CN","population":804493,"lat":30.51365,"lng":117.04723},{"name":"Kraków","region":"77","country":"PL","population":804237,"lat":50.06143,"lng":19.93658},{"name":"Oran","region":"09","country":"DZ","population":803329,"lat":35.69906,"lng":-0.63588},{"name":"Freetown","region":"04","country":"SL","population":802639,"lat":8.48714,"lng":-13.2356},{"name":"San Pedro Sula","region":"06","country":"HN","population":801259,"lat":15.50585,"lng":-88.02588},{"name":"Narela","region":"07","country":"IN","population":800000,"lat":28.85267,"lng":77.09288},{"name":"Xingtai","region":"10","country":"CN","population":798770,"lat":37.06217,"lng":114.49272},{"name":"Niigata","region":"29","country":"JP","population":797591,"lat":37.92259,"lng":139.04125},{"name":"Muscat","region":"06","country":"OM","population":797000,"lat":23.58413,"lng":58.40778},{"name":"Zarqa","region":"17","country":"JO","population":792665,"lat":32.07275,"lng":36.08796},{"name":"Çankaya","region":"68","country":"TR","population":792189,"lat":39.9179,"lng":32.86268},{"name":"Hamamatsu","region":"37","country":"JP","population":791707,"lat":34.7,"lng":137.73333},{"name":"Kolwezi","region":"22","country":"CD","population":790248,"lat":-10.71484,"lng":25.46674},{"name":"Vinh","region":"40","country":"VN","population":790000,"lat":18.67337,"lng":105.69232},{"name":"Thiruvananthapuram","region":"13","country":"IN","population":788271,"lat":8.4855,"lng":76.94924},{"name":"Zhaotong","region":"29","country":"CN","population":787845,"lat":27.31667,"lng":103.71667},{"name":"Panzhihua","region":"32","country":"CN","population":787177,"lat":26.58509,"lng":101.71276},{"name":"Chuzhou","region":"01","country":"CN","population":782671,"lat":32.32194,"lng":118.29778},{"name":"Seattle","region":"WA","country":"US","population":780995,"lat":47.60621,"lng":-122.33207},{"name":"Port Said","region":"19","country":"EG","population":780515,"lat":31.26531,"lng":32.3019},{"name":"Cúcuta","region":"21","country":"CO","population":777106,"lat":7.90745,"lng":-72.5049},{"name":"Homs","region":"11","country":"SY","population":775404,"lat":34.72405,"lng":36.72559},{"name":"Xuancheng","region":"01","country":"CN","population":774332,"lat":30.9525,"lng":118.75528},{"name":"Ibb","region":"23","country":"YE","population":771514,"lat":13.96667,"lng":44.18333},{"name":"Nampula","region":"06","country":"MZ","population":770379,"lat":-15.11646,"lng":39.2666},{"name":"Shangyu","region":"02","country":"CN","population":770000,"lat":30.01556,"lng":120.87111},{"name":"Bujumbura","region":"24","country":"BI","population":769317,"lat":-3.38193,"lng":29.36142},{"name":"Tyumen","region":"78","country":"RU","population":768358,"lat":57.15222,"lng":65.52722},{"name":"Erzurum","region":"25","country":"TR","population":767848,"lat":39.90861,"lng":41.27694},{"name":"Anshun","region":"18","country":"CN","population":765313,"lat":26.25,"lng":105.93333},{"name":"Dodoma","region":"03","country":"TZ","population":765179,"lat":-6.17221,"lng":35.73947},{"name":"Rajshahi","region":"83","country":"BD","population":763580,"lat":24.374,"lng":88.60114},{"name":"Dera Ismail Khan","region":"03","country":"PK","population":763195,"lat":31.83129,"lng":70.9017},{"name":"Wuzhou","region":"16","country":"CN","population":761948,"lat":23.48054,"lng":111.28848},{"name":"Ipoh","region":"07","country":"MY","population":759952,"lat":4.5841,"lng":101.0829},{"name":"Qinhuangdao","region":"10","country":"CN","population":759718,"lat":39.94104,"lng":119.58936},{"name":"Benghazi","region":"69","country":"LY","population":757490,"lat":32.11486,"lng":20.06859},{"name":"Alīgarh","region":"36","country":"IN","population":753207,"lat":27.88145,"lng":78.07464},{"name":"Shaoyang","region":"11","country":"CN","population":753194,"lat":27.23818,"lng":111.46214},{"name":"Malatya","region":"44","country":"TR","population":750491,"lat":38.35018,"lng":38.31667},{"name":"Winnipeg","region":"03","country":"CA","population":749607,"lat":49.8844,"lng":-97.14704},{"name":"Bağcılar","region":"34","country":"TR","population":749024,"lat":41.03903,"lng":28.85671},{"name":"Ōta","region":"40","country":"JP","population":748081,"lat":35.56126,"lng":139.71605},{"name":"Andijon","region":"01","country":"UZ","population":747800,"lat":40.78338,"lng":72.35067},{"name":"Bareilly","region":"36","country":"IN","population":745435,"lat":28.36678,"lng":79.43167},{"name":"Buraydah","region":"08","country":"SA","population":745353,"lat":26.32599,"lng":43.97497},{"name":"São Bernardo do Campo","region":"27","country":"BR","population":743372,"lat":-23.69389,"lng":-46.565},{"name":"Hegang","region":"08","country":"CN","population":743307,"lat":47.34727,"lng":130.29033},{"name":"Morelia","region":"16","country":"MX","population":743275,"lat":19.70078,"lng":-101.18443},{"name":"Riga","region":"25","country":"LV","population":742572,"lat":56.946,"lng":24.10589},{"name":"Tasikmalaya","region":"30","country":"ID","population":741760,"lat":-7.3274,"lng":108.2207},{"name":"Amsterdam","region":"07","country":"NL","population":741636,"lat":52.37403,"lng":4.88969},{"name":"Cagayan de Oro","region":"10","country":"PH","population":741617,"lat":8.48222,"lng":124.64722},{"name":"Ma’anshan","region":"01","country":"CN","population":741531,"lat":31.68579,"lng":118.51008},{"name":"Shah Alam","region":"12","country":"MY","population":740750,"lat":3.08507,"lng":101.53281},{"name":"Shizuishan","region":"21","country":"CN","population":739400,"lat":38.98082,"lng":106.3892},{"name":"Kumamoto","region":"21","country":"JP","population":738907,"lat":32.80589,"lng":130.69181},{"name":"Oyo","region":"32","country":"NG","population":736072,"lat":7.85367,"lng":3.93235},{"name":"Torreón","region":"07","country":"MX","population":735340,"lat":25.54389,"lng":-103.41898},{"name":"Deyang","region":"32","country":"CN","population":735070,"lat":31.13019,"lng":104.38198},{"name":"Abeokuta","region":"16","country":"NG","population":735000,"lat":7.15571,"lng":3.34509},{"name":"Al Ḩudaydah","region":"08","country":"YE","population":734699,"lat":14.79781,"lng":42.95452},{"name":"Yangquan","region":"24","country":"CN","population":731228,"lat":37.8575,"lng":113.56333},{"name":"Akure","region":"48","country":"NG","population":730000,"lat":7.25256,"lng":5.19312},{"name":"São José dos Campos","region":"27","country":"BR","population":729737,"lat":-23.17944,"lng":-45.88694},{"name":"Denver","region":"CO","country":"US","population":729019,"lat":39.73915,"lng":-104.9847},{"name":"Osasco","region":"27","country":"BR","population":728615,"lat":-23.5325,"lng":-46.79167},{"name":"Kikolo","region":"20","country":"AO","population":728205,"lat":-8.7815,"lng":13.33384},{"name":"Maianga","region":"20","country":"AO","population":727681,"lat":-8.84693,"lng":13.23698},{"name":"Álvaro Obregón","region":"09","country":"MX","population":726664,"lat":19.35867,"lng":-99.20329},{"name":"Aihara","region":"19","country":"JP","population":725493,"lat":35.6,"lng":139.31667},{"name":"Evaton","region":"06","country":"ZA","population":725468,"lat":-26.53333,"lng":27.85},{"name":"Denpasar","region":"02","country":"ID","population":725314,"lat":-8.65,"lng":115.21667},{"name":"Valenzuela","region":"NCR","country":"PH","population":725173,"lat":14.7,"lng":120.9667},{"name":"Muzaffarābād","region":"06","country":"PK","population":725000,"lat":34.37002,"lng":73.47082},{"name":"Okayama","region":"31","country":"JP","population":724691,"lat":34.65,"lng":133.93333},{"name":"San Luis Potosí","region":"24","country":"MX","population":722772,"lat":22.15234,"lng":-100.97135},{"name":"Aguascalientes","region":"01","country":"MX","population":722250,"lat":21.88262,"lng":-102.2843},{"name":"General Santos","region":"12","country":"PH","population":722059,"lat":6.11278,"lng":125.17167},{"name":"Zhumadian","region":"09","country":"CN","population":721670,"lat":32.97944,"lng":114.02944},{"name":"Morādābād","region":"36","country":"IN","population":721139,"lat":28.83893,"lng":78.77684},{"name":"Sagamihara","region":"19","country":"JP","population":720780,"lat":35.56707,"lng":139.24167},{"name":"Mississauga","region":"08","country":"CA","population":717961,"lat":43.5789,"lng":-79.6583},{"name":"Lviv","region":"15","country":"UA","population":717273,"lat":49.83826,"lng":24.02324},{"name":"Namangan","region":"06","country":"UZ","population":713220,"lat":40.9983,"lng":71.67257},{"name":"Ribeirão Preto","region":"27","country":"BR","population":711825,"lat":-21.1775,"lng":-47.81028},{"name":"Zaporizhzhya","region":"26","country":"UA","population":710052,"lat":47.85167,"lng":35.11714},{"name":"Zanzibar","region":"25","country":"TZ","population":709809,"lat":-6.16394,"lng":39.19793},{"name":"Saltillo","region":"07","country":"MX","population":709671,"lat":25.42595,"lng":-100.97963},{"name":"Latakia","region":"02","country":"SY","population":709000,"lat":35.53125,"lng":35.79088},{"name":"Subang Jaya","region":"12","country":"MY","population":708296,"lat":3.04384,"lng":101.58062},{"name":"Warangal","region":"40","country":"IN","population":704570,"lat":18,"lng":79.58333},{"name":"Paranaque City","region":"NCR","country":"PH","population":703245,"lat":14.48156,"lng":121.01749},{"name":"Tolyatti","region":"65","country":"RU","population":702879,"lat":53.5303,"lng":49.3461},{"name":"Jaboatão","region":"30","country":"BR","population":702621,"lat":-8.18028,"lng":-35.00139},{"name":"Santo Domingo Oeste","region":"37","country":"DO","population":701269,"lat":18.5,"lng":-70},{"name":"Santo Domingo Este","region":"37","country":"DO","population":700000,"lat":18.48511,"lng":-69.84757},{"name":"Dhārāvi","region":"16","country":"IN","population":700000,"lat":19.05,"lng":72.86667},{"name":"Battagram","region":"03","country":"PK","population":700000,"lat":34.67719,"lng":73.02329},{"name":"Suez","region":"15","country":"EG","population":699541,"lat":29.97371,"lng":32.52627},{"name":"Changzhi","region":"24","country":"CN","population":699514,"lat":35.20889,"lng":111.73861},{"name":"Agadir","region":"09","country":"MA","population":698310,"lat":30.42018,"lng":-9.59815},{"name":"Edogawe","region":"40","country":"JP","population":697932,"lat":35.69225,"lng":139.87308},{"name":"Sarajevo","region":"01","country":"BA","population":696731,"lat":43.84864,"lng":18.35644},{"name":"Balikpapan","region":"14","country":"ID","population":695287,"lat":-1.26753,"lng":116.82887},{"name":"Adachi","region":"40","country":"JP","population":695043,"lat":35.76318,"lng":139.80761},{"name":"Changning","region":"23","country":"CN","population":694900,"lat":31.21739,"lng":121.42105},{"name":"Bauchi","region":"46","country":"NG","population":693700,"lat":10.31032,"lng":9.84388},{"name":"Shizuoka","region":"37","country":"JP","population":693389,"lat":34.98333,"lng":138.38333},{"name":"Tunis","region":"36","country":"TN","population":693210,"lat":36.81897,"lng":10.16579},{"name":"Zhangjiakou","region":"10","country":"CN","population":692602,"lat":40.78341,"lng":114.87139},{"name":"Serang","region":"33","country":"ID","population":692101,"lat":-6.11528,"lng":106.15417},{"name":"Washington","region":"DC","country":"US","population":689545,"lat":38.89511,"lng":-77.03637},{"name":"Nashville","region":"TN","country":"US","population":689447,"lat":36.16589,"lng":-86.78444},{"name":"Fuxin","region":"19","country":"CN","population":689050,"lat":42.01556,"lng":121.65889},{"name":"Ta’if","region":"14","country":"SA","population":688693,"lat":21.27028,"lng":40.41583},{"name":"Changsha","region":"30","country":"CN","population":688242,"lat":22.38124,"lng":112.68492},{"name":"Huangshi","region":"12","country":"CN","population":688090,"lat":30.24706,"lng":115.04814},{"name":"Liaoyang","region":"19","country":"CN","population":687890,"lat":41.27194,"lng":123.17306},{"name":"Hlaingthaya","region":"17","country":"MM","population":687867,"lat":16.85,"lng":96.06667},{"name":"Beira","region":"05","country":"MZ","population":687764,"lat":-19.84361,"lng":34.83889},{"name":"Hongkou","region":"23","country":"CN","population":687500,"lat":31.25,"lng":121.48917},{"name":"Sorocaba","region":"27","country":"BR","population":687357,"lat":-23.50167,"lng":-47.45806},{"name":"Zaragoza","region":"52","country":"ES","population":686986,"lat":41.65606,"lng":-0.87734},{"name":"Sevilla","region":"51","country":"ES","population":686741,"lat":37.38283,"lng":-5.97317},{"name":"Baise","region":"16","country":"CN","population":686078,"lat":23.89013,"lng":106.62684},{"name":"Situbondo","region":"08","country":"ID","population":685967,"lat":-7.70623,"lng":114.00976},{"name":"Binzhou","region":"25","country":"CN","population":682717,"lat":37.36667,"lng":118.01667},{"name":"Oklahoma City","region":"OK","country":"US","population":681054,"lat":35.46756,"lng":-97.51643},{"name":"Yuncheng","region":"24","country":"CN","population":680036,"lat":35.02306,"lng":110.99278},{"name":"Dezhou","region":"25","country":"CN","population":679535,"lat":37.44661,"lng":116.36706},{"name":"Dushanbe","region":"04","country":"TJ","population":679400,"lat":38.53575,"lng":68.77905},{"name":"Cotonou","region":"14","country":"BJ","population":679012,"lat":6.36536,"lng":2.41833},{"name":"El Paso","region":"TX","country":"US","population":678815,"lat":31.75872,"lng":-106.48693},{"name":"Gorakhpur","region":"36","country":"IN","population":674246,"lat":26.76628,"lng":83.36889},{"name":"Guadalupe","region":"19","country":"MX","population":673616,"lat":25.67678,"lng":-100.25646},{"name":"Wrocław","region":"72","country":"PL","population":672545,"lat":51.10286,"lng":17.03006},{"name":"Guntur","region":"02","country":"IN","population":670073,"lat":16.29974,"lng":80.45729},{"name":"Katsina","region":"24","country":"NG","population":670000,"lat":12.99082,"lng":7.60177},{"name":"Sanmenxia","region":"09","country":"CN","population":669307,"lat":34.78081,"lng":111.19287},{"name":"E’zhou","region":"12","country":"CN","population":668727,"lat":30.39607,"lng":114.88655},{"name":"Madīnat an Naşr","region":"11","country":"EG","population":668413,"lat":30.06667,"lng":31.3},{"name":"Camama","region":"20","country":"AO","population":667094,"lat":-8.93611,"lng":13.26518},{"name":"Tabuk","region":"19","country":"SA","population":667000,"lat":28.3998,"lng":36.57151},{"name":"Kitwe","region":"08","country":"ZM","population":665961,"lat":-12.80243,"lng":28.21323},{"name":"Bulawayo","region":"09","country":"ZW","population":665952,"lat":-20.15,"lng":28.58333},{"name":"Mudanjiang","region":"08","country":"CN","population":665915,"lat":44.54804,"lng":129.62594},{"name":"Aracaju","region":"28","country":"BR","population":664908,"lat":-10.91111,"lng":-37.07167},{"name":"Athens","region":"ESYE31","country":"GR","population":664046,"lat":37.98376,"lng":23.72784},{"name":"Zagreb","region":"21","country":"HR","population":663592,"lat":45.81444,"lng":15.97798},{"name":"Leshan","region":"32","country":"CN","population":662814,"lat":29.56227,"lng":103.76386},{"name":"Santo André","region":"27","country":"BR","population":662373,"lat":-23.66389,"lng":-46.53833},{"name":"Vancouver","region":"02","country":"CA","population":662248,"lat":49.24966,"lng":-123.11934},{"name":"Rizhao","region":"25","country":"CN","population":661943,"lat":35.41414,"lng":119.52908},{"name":"Helsinki","region":"01","country":"FI","population":658864,"lat":60.16952,"lng":24.93545},{"name":"Cheonan","region":"17","country":"KR","population":658831,"lat":36.8065,"lng":127.1522},{"name":"Pontianak","region":"11","country":"ID","population":658685,"lat":-0.03194,"lng":109.325},{"name":"Acapulco de Juárez","region":"12","country":"MX","population":658609,"lat":16.84942,"lng":-99.90891},{"name":"Banjarmasin","region":"12","country":"ID","population":657663,"lat":-3.31987,"lng":114.59075},{"name":"Puducherry","region":"22","country":"IN","population":657209,"lat":11.93381,"lng":79.82979},{"name":"Suining","region":"32","country":"CN","population":656760,"lat":30.50802,"lng":105.57332},{"name":"Brampton","region":"08","country":"CA","population":656480,"lat":43.68341,"lng":-79.76633},{"name":"Golfe","region":"20","country":"AO","population":655796,"lat":-8.86639,"lng":13.26173},{"name":"Puyang","region":"09","country":"CN","population":655674,"lat":35.75641,"lng":115.04363},{"name":"Soacha","region":"33","country":"CO","population":655025,"lat":4.57937,"lng":-74.21682},{"name":"Boston","region":"MA","country":"US","population":653833,"lat":42.35843,"lng":-71.05977},{"name":"Tlalnepantla","region":"15","country":"MX","population":653410,"lat":19.54005,"lng":-99.19538},{"name":"Portland","region":"OR","country":"US","population":652503,"lat":45.52345,"lng":-122.67621},{"name":"Calumbo","region":"19","country":"AO","population":652270,"lat":-9.14692,"lng":13.41936},{"name":"Tlaquepaque","region":"14","country":"MX","population":650123,"lat":20.64121,"lng":-103.29342},{"name":"Frankfurt am Main","region":"05","country":"DE","population":650000,"lat":50.11552,"lng":8.68417},{"name":"Macau","region":"02","country":"MO","population":649335,"lat":22.20056,"lng":113.54611},{"name":"Palermo","region":"15","country":"IT","population":648260,"lat":38.1166,"lng":13.3636},{"name":"Izhevsk","region":"80","country":"RU","population":648213,"lat":56.85225,"lng":53.19862},{"name":"Colombo","region":"36","country":"LK","population":648034,"lat":6.93548,"lng":79.84868},{"name":"Maturín","region":"16","country":"VE","population":647459,"lat":9.74569,"lng":-63.18323},{"name":"Amravati","region":"16","country":"IN","population":647057,"lat":20.93333,"lng":77.75},{"name":"Detroit","region":"MI","country":"US","population":645705,"lat":42.33143,"lng":-83.04575},{"name":"Łódź","region":"74","country":"PL","population":645693,"lat":51.77058,"lng":19.47395},{"name":"Osogbo","region":"42","country":"NG","population":645000,"lat":7.77104,"lng":4.55698},{"name":"Honchō","region":"04","country":"JP","population":644668,"lat":35.70129,"lng":139.98648},{"name":"Bikaner","region":"24","country":"IN","population":644406,"lat":28.01762,"lng":73.31495},{"name":"Jaboatão dos Guararapes","region":"30","country":"BR","population":644037,"lat":-8.11278,"lng":-35.01472},{"name":"Hoji ya Henda","region":"20","country":"AO","population":642050,"lat":-8.80523,"lng":13.2897},{"name":"Las Vegas","region":"NV","country":"US","population":641903,"lat":36.17497,"lng":-115.13722},{"name":"New South Memphis","region":"TN","country":"US","population":641608,"lat":35.08676,"lng":-90.05676},{"name":"Hwaseong-si","region":"13","country":"KR","population":640890,"lat":37.20682,"lng":126.8169},{"name":"Gold Coast","region":"04","country":"AU","population":640778,"lat":-28.00029,"lng":153.43088},{"name":"Jeonju","region":"03","country":"KR","population":638421,"lat":35.82194,"lng":127.14889},{"name":"Chongming","region":null,"country":"CN","population":637921,"lat":31.61852,"lng":121.69621},{"name":"Al Aḩmadī","region":"04","country":"KW","population":637411,"lat":29.07694,"lng":48.08389},{"name":"Cuenca","region":"02","country":"EC","population":636996,"lat":-2.8953,"lng":-78.9963},{"name":"Chisinau","region":"57","country":"MD","population":635994,"lat":47.00902,"lng":28.85938},{"name":"Likasi","region":"14","country":"CD","population":635768,"lat":-10.98303,"lng":26.7384},{"name":"Hebi","region":"09","country":"CN","population":634721,"lat":35.73231,"lng":114.28616},{"name":"Tshikapa","region":"18","country":"CD","population":634529,"lat":-6.41621,"lng":20.79995},{"name":"Kochi","region":"13","country":"IN","population":633553,"lat":9.93988,"lng":76.26022},{"name":"Memphis","region":"TN","country":"US","population":633104,"lat":35.14953,"lng":-90.04898},{"name":"Jingmen","region":"12","country":"CN","population":632954,"lat":31.03361,"lng":112.20472},{"name":"Barnaul","region":"04","country":"RU","population":632372,"lat":53.36199,"lng":83.72786},{"name":"Dandong","region":"19","country":"CN","population":631973,"lat":40.12917,"lng":124.39472},{"name":"Bhilai","region":"37","country":"IN","population":627734,"lat":21.20919,"lng":81.4285},{"name":"Ndola","region":"08","country":"ZM","population":627503,"lat":-12.95867,"lng":28.63659},{"name":"Contagem","region":"15","country":"BR","population":627123,"lat":-19.93167,"lng":-44.05361},{"name":"Ulyanovsk","region":"81","country":"RU","population":626540,"lat":54.32824,"lng":48.38657},{"name":"Djibouti","region":"07","country":"DJ","population":626512,"lat":11.58901,"lng":43.14503},{"name":"Glasgow","region":"SCT","country":"GB","population":626410,"lat":55.86515,"lng":-4.25763},{"name":"Panshan","region":"19","country":"CN","population":625040,"lat":41.18806,"lng":122.04944},{"name":"Louisville","region":"KY","country":"US","population":624444,"lat":38.25424,"lng":-85.75941},{"name":"Irkutsk","region":"20","country":"RU","population":623869,"lat":52.29566,"lng":104.29076},{"name":"Ansan-si","region":"13","country":"KR","population":623256,"lat":37.32361,"lng":126.82194},{"name":"Al Mansurah","region":"01","country":"EG","population":621953,"lat":31.03637,"lng":31.38069},{"name":"Kermanshah","region":"13","country":"IR","population":621100,"lat":34.31417,"lng":47.065},{"name":"Feira de Santana","region":"05","country":"BR","population":619609,"lat":-12.26667,"lng":-38.96667},{"name":"Jiaozhou","region":"25","country":"CN","population":619266,"lat":36.28389,"lng":120.00333},{"name":"Düsseldorf","region":"07","country":"DE","population":618685,"lat":51.22319,"lng":6.77927},{"name":"Suizhou","region":"12","country":"CN","population":618582,"lat":31.71111,"lng":113.36306},{"name":"Villa Nueva","region":"07","country":"GT","population":618397,"lat":14.52512,"lng":-90.58544},{"name":"Khabarovsk","region":"30","country":"RU","population":618150,"lat":48.46204,"lng":135.0971},{"name":"Cuiabá","region":"14","country":"BR","population":618124,"lat":-15.59611,"lng":-56.09667},{"name":"Arusha","region":"26","country":"TZ","population":617631,"lat":-3.36667,"lng":36.68333},{"name":"Las Piñas","region":"NCR","country":"PH","population":615549,"lat":14.45056,"lng":120.98278},{"name":"Chizhou","region":"01","country":"CN","population":615274,"lat":30.66134,"lng":117.47783},{"name":"Coyoacán","region":"09","country":"MX","population":614447,"lat":19.3467,"lng":-99.16174},{"name":"Stuttgart","region":"01","country":"DE","population":612663,"lat":48.78232,"lng":9.17702},{"name":"Ya'an","region":"32","country":"CN","population":612056,"lat":29.98521,"lng":102.999},{"name":"Cuttack","region":"21","country":"IN","population":610189,"lat":20.46497,"lng":85.87927},{"name":"Borivli","region":"16","country":"IN","population":609617,"lat":19.23496,"lng":72.85976},{"name":"Yaroslavl","region":"88","country":"RU","population":608722,"lat":57.62987,"lng":39.87368},{"name":"Gothenburg","region":"28","country":"SE","population":608462,"lat":57.70716,"lng":11.96679},{"name":"Kawaguchi","region":"34","country":"JP","population":607373,"lat":35.80521,"lng":139.71072},{"name":"Bukit Rahman Putra","region":"12","country":"MY","population":607000,"lat":3.21727,"lng":101.5608},{"name":"Jambi City","region":"05","country":"ID","population":606200,"lat":-1.6,"lng":103.61667},{"name":"Ha'il","region":"13","country":"SA","population":605930,"lat":27.52188,"lng":41.69073},{"name":"Bhavnagar","region":"09","country":"IN","population":605882,"lat":21.76287,"lng":72.15331},{"name":"Benoni","region":"06","country":"ZA","population":605344,"lat":-26.18848,"lng":28.32078},{"name":"Vladivostok","region":"59","country":"RU","population":604901,"lat":43.10562,"lng":131.87353},{"name":"Jinzhou","region":"19","country":"CN","population":604269,"lat":41.10778,"lng":121.14167},{"name":"Tuxtla","region":"05","country":"MX","population":604147,"lat":16.75357,"lng":-93.11578},{"name":"Kryvyy Rih","region":"04","country":"UA","population":603904,"lat":47.90572,"lng":33.39404},{"name":"Sanming","region":"07","country":"CN","population":602166,"lat":26.24861,"lng":117.61861},{"name":"Islamabad","region":"08","country":"PK","population":601600,"lat":33.72148,"lng":73.04329},{"name":"Sāngli","region":"16","country":"IN","population":601214,"lat":16.85438,"lng":74.56417},{"name":"Jamnagar","region":"09","country":"IN","population":600943,"lat":22.47292,"lng":70.06673},{"name":"Lubango","region":"09","country":"AO","population":600751,"lat":-14.91717,"lng":13.4925},{"name":"Pokhara","region":"4","country":"NP","population":600051,"lat":28.26689,"lng":83.96851},{"name":"Shuangyashan","region":"08","country":"CN","population":600000,"lat":46.67686,"lng":131.13273},{"name":"Borama","region":"21","country":"SO","population":597842,"lat":9.93611,"lng":43.18278},{"name":"Pallabi","region":"81","country":"BD","population":597574,"lat":23.825,"lng":90.37},{"name":"Luancheng","region":"10","country":"CN","population":597130,"lat":37.88452,"lng":114.64629},{"name":"Makhachkala","region":"17","country":"RU","population":596356,"lat":42.97782,"lng":47.50027},{"name":"Anyang-si","region":"13","country":"KR","population":595644,"lat":37.3925,"lng":126.92694},{"name":"Huambo","region":"08","country":"AO","population":595304,"lat":-12.77611,"lng":15.73917},{"name":"Samarkand","region":"10","country":"UZ","population":595200,"lat":39.65456,"lng":66.96445},{"name":"Mengzi","region":"29","country":"CN","population":595100,"lat":23.36779,"lng":103.38212},{"name":"Kagoshima","region":"18","country":"JP","population":595049,"lat":31.56667,"lng":130.55},{"name":"Mukalla","region":"04","country":"YE","population":594951,"lat":14.54248,"lng":49.12424},{"name":"Rasht","region":"08","country":"IR","population":594590,"lat":37.27611,"lng":49.58862},{"name":"Mar del Plata","region":"01","country":"AR","population":593337,"lat":-38.00042,"lng":-57.5562},{"name":"Essen","region":"07","country":"DE","population":593085,"lat":51.45657,"lng":7.01228},{"name":"Al Maḩallah al Kubrá","region":"05","country":"EG","population":592573,"lat":30.97063,"lng":31.1669},{"name":"Málaga","region":"51","country":"ES","population":592346,"lat":36.72016,"lng":-4.42034},{"name":"Shekhupura","region":"04","country":"PK","population":591424,"lat":31.71287,"lng":73.98556},{"name":"Yingkou","region":"19","country":"CN","population":591159,"lat":40.66472,"lng":122.23176},{"name":"Cimahi","region":"30","country":"ID","population":590782,"lat":-6.87222,"lng":107.5425},{"name":"Zhangzhou","region":"07","country":"CN","population":589831,"lat":24.51333,"lng":117.65556},{"name":"Reynosa","region":"28","country":"MX","population":589466,"lat":26.08005,"lng":-98.28456},{"name":"Thuận An","region":"79","country":"VN","population":588616,"lat":10.9239,"lng":106.71428},{"name":"Dortmund","region":"07","country":"DE","population":588462,"lat":51.51494,"lng":7.466},{"name":"Suginami","region":"14","country":"JP","population":588354,"lat":36.2013,"lng":140.28406},{"name":"Londrina","region":"18","country":"BR","population":588125,"lat":-23.31028,"lng":-51.16278},{"name":"Baltimore","region":"MD","country":"US","population":585708,"lat":39.29038,"lng":-76.61219},{"name":"Itabashi","region":"40","country":"JP","population":584483,"lat":35.74893,"lng":139.71497},{"name":"New Kingston","region":"08","country":"JM","population":583958,"lat":18.00747,"lng":-76.78319},{"name":"Pelentong","region":"01","country":"MY","population":583640,"lat":1.5243,"lng":103.824},{"name":"Bucaramanga","region":"26","country":"CO","population":581130,"lat":7.125,"lng":-73.11895},{"name":"Genoa","region":"08","country":"IT","population":580097,"lat":44.40478,"lng":8.94439},{"name":"Hachiōji","region":"40","country":"JP","population":579355,"lat":35.65583,"lng":139.32389},{"name":"Malacca","region":"04","country":"MY","population":579000,"lat":2.196,"lng":102.2405},{"name":"Nha Trang","region":"56","country":"VN","population":579000,"lat":12.24507,"lng":109.19432},{"name":"Khabarovsk Vtoroy","region":"30","country":"RU","population":578303,"lat":48.43787,"lng":135.12994},{"name":"Kerman","region":"29","country":"IR","population":577514,"lat":30.28321,"lng":57.07879},{"name":"Orūmīyeh","region":"01","country":"IR","population":577307,"lat":37.55274,"lng":45.07605},{"name":"Bahçelievler","region":"34","country":"TR","population":576799,"lat":41.00231,"lng":28.8598},{"name":"Tanta","region":"05","country":"EG","population":576648,"lat":30.78847,"lng":31.00192},{"name":"Jammu","region":"12","country":"IN","population":576198,"lat":32.73528,"lng":74.86167},{"name":"Iskandar Puteri","region":"01","country":"MY","population":575977,"lat":1.39324,"lng":103.62322},{"name":"Calamba","region":"40","country":"PH","population":575046,"lat":14.21167,"lng":121.16528},{"name":"Tlalpan","region":"09","country":"MX","population":574577,"lat":19.29513,"lng":-99.16206},{"name":"Herāt","region":"11","country":"AF","population":574300,"lat":34.34817,"lng":62.19967},{"name":"Gujrat","region":"04","country":"PK","population":574240,"lat":32.5742,"lng":74.07542},{"name":"Tomsk","region":"75","country":"RU","population":574002,"lat":56.50049,"lng":84.98216},{"name":"Juiz de Fora","region":"15","country":"BR","population":573285,"lat":-21.76417,"lng":-43.35028},{"name":"Umraniye","region":"34","country":"TR","population":573265,"lat":41.01643,"lng":29.12476},{"name":"Shihezi","region":"13","country":"CN","population":572772,"lat":44.3023,"lng":86.03694},{"name":"South Boston","region":"MA","country":"US","population":571281,"lat":42.33343,"lng":-71.04949},{"name":"Nakuru","region":"39","country":"KE","population":570674,"lat":-0.30719,"lng":36.07225},{"name":"Hamilton","region":"08","country":"CA","population":569353,"lat":43.25011,"lng":-79.84963},{"name":"Irbid","region":"18","country":"JO","population":569068,"lat":32.55556,"lng":35.85},{"name":"Manchester","region":"ENG","country":"GB","population":568996,"lat":53.48095,"lng":-2.23743},